dam_id,dam_name,construction_year,dam_height_m,spillway_height_m,capacity_mcm,curve_type,srtm_water_level_m,coverage_fraction,z_min,z_max,footprint_area_km2,c,b,r_squared,n_pixels,void_fraction,capped,placement_upstream_shift_m,placement_method,valley_width_m,valley_ratio,channel_slope,mean_catchment_slope,lat,lon,srtm_max_vol_mcm,vol_ratio,z_range,z_range_ratio,quality,uncertainty_flags,uncertainty_score,sed_yield_t_ha_yr,upstream_area_km2,owe_mm_year
id_010000,Al-Hariqah,1970,6.0,4.0,0.08,full,,1.0,665.8177490234375,674.8177490234375,0.0303763209763218,0.002640732440707,1.6757951149658514,0.9868186106647716,35,0.0,True,0.0,stage_1_fast_path,147.30027877076188,36.82506969269047,0.0026715455066723,0.101788081228733,24.757882,46.527667,0.0937326475840788,1.171658094800985,9.0,2.25,B,height_noise,1,3.467380732,1327.181422,
id_010001,Tamir,2011,5.5,4.0,0.061523,full,,1.0,666.0751953125,670.0751953125,0.0852937924682781,0.1580788676143082,1.1673693211683664,0.9950263032666872,99,0.0,True,0.0,stage_1_fast_path,293.5223090798273,73.38057726995683,0.0053966772420896,0.0579404346644878,25.710225,45.827694,0.0887400063053802,1.442387502322388,4.0,1.0,A,height_noise,1,0.419758551,10.39585528,
id_010002,Shi'b Al-Qasr Al-Asfal,2008,6.5,5.0,0.09117,full,,1.0,700.641357421875,703.3739013671875,0.0129790030344312,0.0212187510074039,1.4090096471295646,0.9236889370844362,15,0.0,False,0.0,stage_1_fast_path,147.07709449146785,29.41541889829357,0.0193049196200513,0.0915092676877975,25.153833,46.267694,0.0155748036413175,0.170832550634173,2.7325439453125,0.5465087890625,D,sub_pixel,1,3.028792013,476.0297376,
id_010003,Al-Manih,1980,6.0,4.0,0.1,full,,1.0,714.176025390625,715.1840209960938,0.0095205248927182,0.0004472551050922,1.803625590870315,0.6506256015399423,11,0.0,False,0.0,stage_2_upstream_walk,205.93593879103483,51.48398469775871,0.0111330225255349,0.0466628409922122,25.067531,45.450892,0.009087773761231,0.0908777376123103,1.00799560546875,0.2519989013671875,D,sub_pixel;height_noise,2,2.335154861,6.795315792,2494.2
id_010004,Qabiban,2012,5.0,3.0,0.128442,full,,1.0,774.963134765625,779.6119384765625,0.0735148997449489,2.152179440693657e-05,1.988642233878117,0.9653898518203328,84,0.0,False,0.0,stage_3_quality_recovery,207.0837789830167,69.02792632767223,0.0026749423037375,0.1053938642144203,23.483889,45.536389,0.1148670308514828,0.8943105125385996,4.6488037109375,1.5496012369791667,B,height_noise,1,4.601179458,11.00313286,2560.9
id_010005,Al-Ashr,2013,6.5,5.0,0.101387,full,,1.0,736.28857421875,738.180419921875,0.0146944749009745,0.3026572705800113,1.074975889346903,0.992939039175642,17,0.0,False,0.0,stage_2_upstream_walk,558.6067457761106,111.72134915522211,0.0023024711114799,0.0481190718710422,25.240986,45.211788,0.009075999203543,0.0895183722128387,1.891845703125,0.378369140625,D,sub_pixel,1,2.144710158,4.683855356,2496.7
id_010006,Al-Dahinah,2009,11.0,9.0,0.11664,full,,1.0,747.3673095703125,758.3673095703125,0.0241379253598997,0.0002881862146543,1.955898037169884,0.977315049923426,28,0.0,True,0.0,stage_2_upstream_walk,88.08302257349061,9.787002508165624,0.0370382861351343,0.088054671883583,25.608753,45.290367,0.1178879033202245,1.01069875960412,11.0,1.2222222222222223,B,sub_pixel;narrow_valley,2,2.784133981,16.25706446,2479.6
id_010008,Al-Ghadir,2010,6.0,4.0,0.119,full,,1.0,725.680419921875,733.180419921875,0.083852182263301,0.3374193648474362,1.141096818430268,0.994588746487343,97,0.0,True,0.0,stage_2_upstream_walk,88.20487166395479,22.051217915988698,0.0107356431752595,0.0551801733672618,25.22936,45.226406,0.1452285218580883,1.220407746706625,7.5,1.875,A,narrow_valley;height_noise,2,2.306460919,10.72425836,2496.7
id_010010,Al-Khalif,2012,7.0,5.0,0.147368,full,,1.0,729.4557495117188,733.9733276367188,0.0311071100752436,0.0001192921181086,1.9376475788876035,0.974196507378284,36,0.0,False,0.0,stage_1_fast_path,117.581385668242,23.5162771336484,0.0077079051438114,0.0494627729058265,25.28749,45.174242,0.0680468032895955,0.4617474844579256,4.517578125,0.903515625,B,-,0,2.411548819,21.90740876,2492.7
id_010011,Al-Mahdiyah,2003,12.0,10.0,0.15,full,,1.0,751.749755859375,758.749755859375,0.0564471733516142,0.0013328888158453,1.6982793860726697,0.9965319629184576,65,0.0,True,0.0,stage_3_quality_recovery,117.87573467432868,11.787573467432868,0.015289183102695,0.1572138667106628,24.662778,46.427778,0.1589205034360831,1.059470022907221,7.0,0.7,A,-,0,2.913758025,31.73482847,2522.2
id_010012,Al-Fawarah,2012,5.0,3.0,0.164,full,,1.0,825.2222900390625,832.2222900390625,0.0972728143315216,0.8613061454557728,1.0700210723358377,0.9897139174290516,111,0.0,True,0.0,stage_1_fast_path,384.8376939034082,128.27923130113606,0.0055480602291112,0.197493314743042,23.280191,45.236743,0.1818388195837003,1.1087732901445142,7.0,2.333333333333333,B,height_noise,1,3.051257907,14.79661195,2546.6
id_010014,Al-Hafirah,2003,8.0,6.0,0.17,full,,1.0,842.061767578125,848.061767578125,0.0826251418518822,0.0077254464309342,1.5018043224976638,0.9985915580048568,94,0.0,True,0.0,stage_1_fast_path,474.3644831938457,79.06074719897428,0.043181762519538,0.0964912101626396,22.824444,44.954722,0.1856868214490438,1.0922754202884928,6.0,1.0,A,-,0,9.602743891,16.49082014,2579.0
id_010015,Malham,1970,5.0,4.0,0.2,full,,1.0,700.0,709.2372436523438,0.0536497281300339,0.0069485705758598,1.5827008437202748,0.99575391598309,62,0.0,False,0.0,stage_1_fast_path,176.49774798349551,44.12443699587388,0.0092465624361896,0.132838636636734,25.143333,46.240556,0.2226031058298584,1.1130155291492922,9.23724365234375,2.309310913085937,A,height_noise,1,2.201177196,467.9401323,2501.9
id_010017,Halifah Al-Musa'id,1985,5.0,3.0,0.2,full,,1.0,728.856689453125,736.8389282226562,0.0553675690343142,0.0004640235668552,1.815891880476353,0.9952281922699752,64,0.0,False,0.0,stage_5_relaxed_alignment,88.23867856813382,29.412892856044607,0.0158823383166371,0.0338619612157344,25.126667,45.371556,0.1892446207227537,0.9462231036137684,7.98223876953125,2.6607462565104165,A,narrow_valley;height_noise,2,2.143427489,7.838716372,2494.2
id_010018,Mahiraqah,2008,6.0,4.0,0.202838,full,,1.0,903.5608520507812,911.9359741210938,0.1203794510936643,0.2955077282005126,1.1563424288357558,0.9942305315660792,138,0.0,False,0.0,stage_1_fast_path,236.27981554048225,59.06995388512056,0.0099437554621681,0.0559915639460086,23.951111,45.075833,0.2344346194305961,1.155772682784272,8.3751220703125,2.093780517578125,A,height_noise,1,3.337219556,13.94693746,2514.9
id_010019,Marqan,2013,8.0,6.0,0.219537,full,,1.0,915.0,919.5,0.1420659575634572,0.0003226374555229,1.7352350517205313,0.9990450866606622,163,0.0,True,0.0,stage_1_fast_path,236.1789547678253,39.36315912797088,0.0069032632470789,0.1242032349109649,24.074167,44.937778,0.2832603448351141,1.290262437926701,4.5,0.75,A,-,0,1.252936097,1676.183285,2513.8
id_010020,Al-Shahmah,2011,7.5,6.0,0.219617,full,,1.0,646.25634765625,651.75634765625,0.1717948979073552,0.0247081863204244,1.3454375470885171,0.9979697232744574,200,0.0,True,0.0,stage_2_upstream_walk,234.46613258710448,39.07768876451741,0.0113479581881186,0.0435534343123436,26.112187,45.808843,0.2725096568055422,1.2408404486243878,5.5,0.9166666666666666,A,-,0,1.100554154,15.28567973,2461.7
id_010021,Al-Ruwaydah,2010,5.5,4.0,0.14857,full,,1.0,940.8170166015624,948.3170166015624,0.1441449292217976,1.0200978701492658,1.0130519477775983,0.9975827357244288,165,0.0,True,0.0,stage_3_quality_recovery,206.89774273953708,51.72443568488427,0.006572016570267,0.0698339864611625,23.737759,44.801521,0.1751579291452753,1.1789589361598931,7.5,1.875,A,height_noise,1,1.288309204,121.8077617,2534.2
id_010022,Athitiyah,1982,4.0,3.0,0.25,full,,1.0,704.617431640625,707.42431640625,0.0320020852925482,0.0006411043668806,1.710799238492146,0.9905118579783926,37,0.0,False,0.0,stage_2_upstream_walk,294.09543079125257,98.03181026375086,0.0015667086457886,0.0569346658885479,25.158056,45.368056,0.033731927740794,0.1349277109631761,2.806884765625,0.9356282552083334,C,height_noise,1,1.849155265,16.52031192,2494.2
id_010023,Al-Qaltah,2010,9.5,8.0,0.13554,full,,1.0,884.0323486328125,893.5323486328125,0.0366111472741117,1.1034227237003468e-05,2.214407316860143,0.9898812114277672,42,0.0,True,0.0,stage_1_fast_path,177.1467848362202,22.14334810452753,0.0041638963668726,0.1643318086862564,24.053611,45.014444,0.1457908186094094,1.075629471812081,9.5,1.1875,B,-,0,1.353869179,1739.598358,2515.7
id_010024,Marat,1977,12.0,10.0,0.4,full,,1.0,713.2139282226562,722.7139282226562,0.1540800530358865,0.0281553164082596,1.3829033261326218,0.990000923297322,178,0.0,True,,stage_6_fallback,2500.818274157705,250.08182741577053,0.0139754250905805,0.038181085139513,25.049528,45.467333,0.4083554214588734,1.0208885536471834,9.5,0.95,A,-,0,2.20142624,17.7253458,2494.2
id_010025,Sudus,1979,7.0,6.0,0.4,full,,1.0,814.2943115234375,822.7943115234375,0.2070049898907389,1.6950226422396824,1.0163477206399631,0.992983217329665,239,0.0,True,0.0,stage_1_fast_path,941.7625904496116,156.96043174160192,0.0063025088141519,0.0451374426484108,25.005833,46.1475,0.4135769149490704,1.033942287372676,8.5,1.4166666666666667,A,-,0,2.067704889,52.74882731,2512.9
id_010026,Al-Raziwah,2013,6.0,4.0,0.441675,full,,1.0,884.6245727539062,894.1245727539062,0.2931636117785443,0.8665106119254626,1.06013263385476,0.9989828723909656,333,0.0,True,0.0,stage_2_upstream_walk,534.0788995267129,133.51972488167823,0.0039817948242386,0.1022723019123077,22.586019,44.953615,0.5475908904692329,1.2398050387031934,9.5,2.375,A,height_noise,1,1.347430167,53.0483428,
id_010027,Al-Bair,2009,6.0,4.0,0.441906,full,,1.0,715.1295776367188,719.174072265625,0.1063204270821462,2.5880411269912843e-06,2.1741198626413376,0.9739960201762192,123,0.0,False,0.0,stage_3_quality_recovery,235.20458718179933,58.80114679544983,0.0037788645368914,0.0840968117117881,25.269934,45.970554,0.2476487996669504,0.5604105843028843,4.04449462890625,1.0111236572265625,B,height_noise,1,3.49127656,16.26597998,2501.2
id_010028,Haradah,2007,8.0,6.0,0.4478,full,,1.0,922.4715576171876,926.9715576171876,0.2963927554803174,0.0001615456756579,1.724173861206336,0.9943059613393904,337,0.0,True,0.0,stage_3_quality_recovery,266.907852567757,44.48464209462617,0.0109294066485794,0.1041651666164398,22.792778,46.199167,0.4560226816514677,1.018362397613818,4.5,0.75,A,-,0,2.361835753,51.39777109,2579.7
id_010029,Al-Jazar,2011,6.0,4.0,0.040365,full,,1.0,755.0357055664062,760.0357055664062,0.0206766437531974,0.0446627835979167,1.3884892224530982,0.950979027749179,24,0.0,True,0.0,stage_1_fast_path,410.9248803829951,102.73122009574875,0.0024683509389573,0.0572301410138607,25.697671,45.435457,0.043722486269782,1.0831781560704077,5.0,1.25,B,sub_pixel;height_noise,2,1.29608736,51.93675256,
id_010030,Bawdah,1985,8.0,6.0,0.13,full,,1.0,691.4273681640625,698.9273681640625,0.1196525831148191,0.337814797025471,1.124133448966652,0.9967954960108724,139,0.0,True,0.0,stage_3_quality_recovery,146.69781444063207,24.449635740105347,0.0035729916670086,0.0872038453817367,25.819128,45.673748,0.177757254771296,1.367363498240739,7.5,1.25,A,-,0,0.879860324,73.428643,2470.1
id_010031,Tamrah,2009,6.0,4.0,0.47352,full,,1.0,640.1173095703125,647.9955444335938,0.1723136455553048,0.0058629433860302,1.5049882138115949,0.987476068277038,193,0.0,False,89.64012130256499,stage_4_river_retry,89.64012130256499,22.410030325641248,0.0196134002270378,0.1460120528936386,20.344295,45.373186,0.4861387565018832,1.0266488353224432,7.87823486328125,1.9695587158203125,B,narrow_valley;height_noise,2,1.117528193,118.6157154,2641.8
id_010033,Al-Artawiyah,2012,10.0,8.0,0.607143,full,,1.0,632.6704711914062,640.6704711914062,0.2741241376316659,0.0134597394069028,1.4176076919129263,0.9993762382591508,320,0.0,True,0.0,stage_2_upstream_walk,146.3418882359863,18.29273602949829,0.0017832322346334,0.0615946687757968,26.455253,45.299936,0.6962324776879265,1.1467355757835085,8.0,1.0,A,-,0,0.727170923,211.91319,2455.5
id_010034,Al-Khaniqiyah,2011,8.0,6.0,0.6782,full,,1.0,817.8170166015625,828.8170166015625,0.2132385401767413,0.009874281075003,1.473144371454117,0.9923005875166788,245,0.0,True,0.0,stage_2_upstream_walk,88.50566363961381,14.750943939935636,0.0320433604392784,0.1568924784660339,24.273056,45.059444,0.7458997099243566,1.0998226333299272,11.0,1.8333333333333333,A,narrow_valley,1,2.262358498,307.1334788,2519.1
id_010035,Khanqat 'Arwah,2011,6.5,5.0,0.680143,full,,1.0,914.260986328125,922.260986328125,0.3811549261558851,0.2554388260038958,1.153274196297823,0.9982079076855894,437,0.0,True,0.0,stage_1_fast_path,590.6633792632152,118.13267585264305,0.0033725920092963,0.0649597570300102,23.968821,44.909614,0.6833750220666727,1.004751974315214,8.0,1.6,A,-,0,0.994404797,1082.813829,2513.0
id_010036,Al-Hadar,2010,10.0,8.0,1.9,full,,1.0,721.0,730.0,0.5704143290998087,6.777853135141121e-06,1.9974565730483405,0.9990362863228316,645,0.0,True,0.0,stage_1_fast_path,446.0736965000689,55.75921206250862,0.0039123077044119,0.1199493780732154,21.921389,45.934167,2.1454653680560245,1.129192298976855,9.0,1.125,A,-,0,1.112761717,230.4961666,2602.4
id_010037,Al-Jufir,2011,5.5,4.0,0.575625,full,,1.0,796.5765380859375,803.0765380859375,0.3795162694598777,0.0393217410868821,1.289404291218649,0.9996381404792596,435,0.0,True,0.0,stage_1_fast_path,620.2829810859246,155.07074527148114,0.005545701564122,0.0899601057171821,23.985878,46.247886,0.6098433847182863,1.0594456194888793,6.5,1.625,A,height_noise,1,3.330206861,80.58577071,2545.1
id_010038,Al-Fahihal,2010,6.0,4.0,0.801985,full,,1.0,776.0698852539062,781.5210571289062,0.0972923003423751,4.340323744872581e-05,1.94569156586028,0.9965961135621904,113,0.0,False,0.0,stage_1_fast_path,146.7134799822091,36.67836999555227,0.0038241718566545,0.0691368877887725,25.7775,45.265833,0.2277328623058249,0.2839614984143406,5.451171875,1.36279296875,C,height_noise,1,11.42784578,5.739226831,2479.6
id_010039,Al-Rayn Bin 'Asaylan,2011,10.0,8.0,0.826156,full,,1.0,799.9636840820312,809.91015625,0.1179973308464321,6.8523391825546826e-06,2.1371591809345203,0.9926961740787512,135,0.0,False,88.69322816932235,stage_4_river_retry,147.8220469488706,18.477755868608824,0.0057344135845712,0.1810817867517471,23.666615,45.375946,0.4995220339165627,0.6046340326966853,9.94647216796875,1.2433090209960938,A,-,0,2.44549332,589.4235077,2531.1
id_010040,Warat,2012,8.0,6.0,0.881307,full,,1.0,776.0242309570312,782.5242309570312,0.4201468203057476,0.0029122804311407,1.5086797128857732,0.9993004166707634,487,0.0,True,0.0,stage_1_fast_path,323.09388994327406,53.84898165721234,0.0089857271178888,0.1226933300495147,25.511667,45.519167,0.9002529917639581,1.021497607262802,6.5,1.0833333333333333,A,-,0,4.593956443,25.90477215,2489.2
id_010041,Salabawakh,2008,12.0,10.0,0.9312,full,,1.0,693.541748046875,702.041748046875,0.3480535108461761,0.0021593470998528,1.569792985220562,0.9990623140411128,402,0.0,True,0.0,stage_1_fast_path,235.3964830117829,23.53964830117829,0.0105666175888003,0.0659941062331199,25.074095,46.336166,1.0712169310806752,1.1503618246141272,8.5,0.85,A,-,0,1.716825658,300.4313463,2497.2
id_010042,Al-'Afaj,2013,6.0,4.0,0.963524,full,,1.0,705.6695556640625,714.1695556640625,0.5204562277001245,0.1222707558500928,1.2158897886860134,0.9992791909446298,595,0.0,True,0.0,stage_2_upstream_walk,1271.750969899857,317.93774247496424,0.0039189972895447,0.0553090386092662,23.564587,45.614631,1.0855229892031166,1.1266174887217304,8.5,2.125,A,height_noise,1,2.429223572,1363.101012,2550.3
id_010043,Al-'Ayinah,1968,5.0,3.0,0.1,full,,1.0,775.116455078125,783.616455078125,0.0701962450548862,4.90117102300783,0.905496754037368,0.9882168073362994,81,0.0,True,0.0,stage_1_fast_path,147.19207768419324,49.06402589473108,0.0036231197501576,0.0442527830600738,24.944444,46.345833,0.1239267042327004,1.239267042327004,8.5,2.833333333333333,B,height_noise,1,1.294322443,33.15303957,2508.8
id_010044,Al-Ghat,1975,10.5,9.0,1.0,full,,1.0,713.4002075195312,727.4002075195312,0.3146733206217784,0.2227189850709749,1.207636561637076,0.9922700881490154,366,0.0,True,0.0,stage_1_fast_path,205.2520289395211,22.805780993280123,0.0068640317196257,0.1118957474827766,25.967778,45.035278,1.0491260095320358,1.0491260095320358,14.0,1.5555555555555556,A,-,0,1.359856609,45.23776964,2483.5
id_010045,Hawatah Sadir,1981,14.0,12.0,1.0,full,,1.0,710.3059692382812,724.3059692382812,0.400080477885185,0.9090602190880656,1.085200713234909,0.9994375157498274,464,0.0,True,0.0,stage_1_fast_path,411.0955025418318,34.257958545152654,0.0007932257634832,0.0766747593879699,25.590158,45.585831,1.0952634203311562,1.0952634203311562,14.0,1.1666666666666667,A,-,0,2.163994787,224.8555908,2475.0
id_010046,Al-Wasi'ah,1981,6.5,4.0,0.1,full,,1.0,714.4603271484375,719.9603271484375,0.0567363659381686,0.0131657622623487,1.4473963739946696,0.996264947989808,66,0.0,True,0.0,stage_3_quality_recovery,234.5572043699798,58.63930109249495,0.0178086842898833,0.1250962316989898,25.986667,45.014167,0.1012228346851417,1.012228346851417,5.5,1.375,A,height_noise,1,2.983612715,4.062248356,2483.5
id_010049,Al-Maliyah,1982,8.0,6.0,0.061,full,,1.0,737.0844116210938,742.5844116210938,0.0848047816761204,0.8121519239144751,1.0280919477367814,0.9987685654583992,98,0.0,True,0.0,stage_3_quality_recovery,294.1738999737645,49.02898332896075,0.014143602344789,0.0977652817964553,25.126667,46.164444,0.094540024470573,1.5498364667307056,5.5,0.9166666666666666,A,-,0,1.6809718,349.1943032,
id_010050,Al-Ha'ir Bin Al-Majma'ah,1985,11.0,9.0,1.0,full,,1.0,755.6193237304688,766.6193237304688,0.3237169286874955,0.0045889661174431,1.5194196247102447,0.9975490057940152,376,0.0,True,0.0,stage_1_fast_path,264.0774347655615,29.341937196173504,0.0014450230187446,0.0700421407818794,25.786674,45.368297,1.1198797739102655,1.1198797739102655,11.0,1.2222222222222223,A,-,0,1.597063933,48.56945954,2479.6
id_010051,Al-Hariq Bin Al-Washam,1985,6.0,4.0,0.5,full,,1.0,736.0928955078125,744.0928955078125,0.3046052973554848,0.5962399133873635,1.086462993770919,0.997716817739199,353,0.0,True,0.0,stage_1_fast_path,616.879968521498,154.2199921303745,0.005511666931206,0.0907282680273056,25.478943,45.378394,0.5367266146037155,1.073453229207431,8.0,2.0,A,height_noise,1,4.043351337,24.63013428,2490.1
id_010052,Namar,1959,8.0,6.0,1.5,full,,1.0,576.5480346679688,595.0480346679688,0.3154980299177483,0.074650003993905,1.327293183854747,0.9990541504535514,363,0.0,True,0.0,stage_2_upstream_walk,235.8495219632461,39.30825366054102,0.0030783040458426,0.0738973319530487,24.5745,46.686333,1.502744059856162,1.0018293732374417,18.5,3.083333333333333,D,-,0,1.494141636,189.9458707,2520.2
id_010053,Hanifah,1960,8.0,6.0,1.4,full,,1.0,598.2442626953125,617.7442626953125,0.4586049641267753,0.1666922769804178,1.2268699847614983,0.9953823512162476,528,0.0,True,0.0,stage_2_upstream_walk,265.2436062058516,44.20726770097526,0.0007336864498406,0.1370180398225784,24.657778,46.609167,1.5419289063751096,1.1013777902679356,19.5,3.25,D,-,0,1.64257356,1668.885705,2520.2
id_010054,Al-Shamam,1981,6.0,4.0,1.5,full,,1.0,908.9570922851562,919.4872436523438,0.1133580135733269,0.0064008444755601,1.5538812965941526,0.9907670776948204,130,0.0,False,0.0,stage_3_quality_recovery,118.11754957125196,29.529387392813,0.0246339154439871,0.2105985134840011,24.005556,45.010278,0.5050971489411512,0.3367314326274341,10.5301513671875,2.632537841796875,B,height_noise,1,14.75571742,7.48137759,2514.9
id_010055,Al-Nasaq,1981,10.0,8.0,1.5,full,,1.0,911.5667114257812,929.1840209960938,0.2145239400710546,1.9373561899649167e-05,2.036009133467876,0.9936685735752204,246,0.0,False,0.0,stage_1_fast_path,147.65233971006063,18.45654246375758,0.0052828384835393,0.1815359443426132,23.995111,45.012222,1.5188905391006478,1.012593692733765,17.6173095703125,2.2021636962890625,A,-,0,15.89239692,4.041534456,2514.9
id_010056,Dharmah,1982,6.0,4.0,1.5,full,,1.0,659.0577392578125,666.0577392578125,0.8056325816861339,0.0026300836383896,1.4864123105222211,0.9986557242891022,928,0.0,True,0.0,stage_1_fast_path,1826.7798489092563,456.6949622273141,0.0024875794985544,0.0418954454362392,24.679167,46.107778,1.5954216346914794,1.063614423127653,7.0,1.75,A,height_noise,1,12.40492138,4.923738495,2520.9
id_010057,Al-Qawi'ah,1982,9.0,7.0,1.5,full,,1.0,830.1364135742188,839.6364135742188,0.5875818884262977,0.1603342241688578,1.2074585431128118,0.9979499714452212,674,0.0,True,0.0,stage_3_quality_recovery,324.785728268983,46.397961181283286,0.0039290106932273,0.1141405552625656,24.040833,45.231333,1.5123259361239167,1.008217290749278,9.5,1.3571428571428572,A,-,0,1.552249387,248.593398,2515.7
id_010059,Al-Muzayri'ah,1985,4.0,3.0,0.39,full,,1.0,749.8718872070312,757.8718872070312,0.1752606114241812,0.0092889306742202,1.4662179778852784,0.9993368508348875,202,0.0,True,0.0,stage_1_fast_path,559.654599651903,186.551533217301,0.0183487327700747,0.1322004348039627,24.781583,46.336556,0.4505152103069609,1.1551672059152842,8.0,2.6666666666666665,A,height_noise,1,3.299374024,135.8937983,2508.8
id_010060,Lasad,1986,13.9,11.0,1.5,full,,1.0,639.0701904296875,654.8176879882812,0.2755812215481329,0.0033148031004163,1.5794619240174537,0.9929398304222088,315,0.0,False,0.0,stage_1_fast_path,236.6243971580579,21.51130883255072,0.0503269251654013,0.2424010187387466,23.626667,46.6325,1.422961450311233,0.9486409668741552,15.74749755859375,1.4315906871448865,A,-,0,4.749514655,58.98334035,2536.8
id_010061,Jalajil,1975,12.0,10.0,1.75,full,,1.0,774.3357543945312,786.3357543945312,0.6230962574810325,0.1826656156121939,1.210522835434373,0.9995068870807424,723,0.0,True,0.0,stage_3_quality_recovery,645.8491666688807,64.58491666688806,0.0046635047164244,0.0674382075667381,25.651115,45.420007,1.8572232847463697,1.061270448426497,12.0,1.2,A,-,0,2.408384978,79.38545211,2479.6
id_010062,Al-Khanqah,2007,12.0,10.0,1.9325,full,,1.0,876.1661987304688,890.1661987304688,0.5299951458002966,0.1497607588477428,1.2496169788377252,0.9981715098626422,608,0.0,True,0.0,stage_1_fast_path,206.674459447296,20.6674459447296,0.0009023106965707,0.2305670082569122,24.049167,44.968611,2.1267362779050547,1.1005103637283595,14.0,1.4,A,-,0,1.282569289,1687.08652,2513.8
id_010063,Laban,1959,12.0,10.0,2.0,full,,1.0,621.2794799804688,633.2794799804688,0.6342194819163879,0.032871451543677,1.3480119396961112,0.9987649338444552,730,0.0,True,0.0,stage_1_fast_path,324.2283934392058,32.42283934392058,0.0335718700507629,0.1436384916305542,24.621139,46.605278,2.167423359603984,1.083711679801992,12.0,1.2,A,-,0,2.283089585,201.3329788,2520.2
id_010065,Al-Ahmar,2008,8.0,6.0,2.39445,full,,1.0,733.581298828125,744.581298828125,1.1041334866693304,0.1414046846603646,1.1961687412664048,0.9987726798957252,1252,0.0,True,0.0,stage_3_quality_recovery,742.4182430264894,123.73637383774825,0.008635896340578,0.0887680575251579,22.370833,46.116667,2.4514497280903123,1.0238049356179133,11.0,1.8333333333333333,A,-,0,1.706909503,300.5854055,2583.4
id_010066,Harimilah,1970,6.0,5.0,1.5,full,,1.0,769.3767700195312,781.2750244140625,0.1609859333017277,0.1462316457546497,1.2555254224194912,0.99813596940069,186,0.0,False,0.0,stage_2_upstream_walk,676.6519360516459,135.33038721032918,0.0059280011174958,0.0512567460536956,25.098889,46.080556,0.5082741361905354,0.3388494241270236,11.89825439453125,2.37965087890625,B,-,0,3.064405457,149.7677854,2501.9
id_010067,Al-Matirafi'ah,1985,5.0,4.0,0.14,full,,1.0,724.5802612304688,731.5802612304688,0.1223707738967663,1.1288643027477776,1.0243082549635596,0.997773628609684,141,0.0,True,0.0,stage_1_fast_path,942.712520842066,235.67813021051649,0.0037427392319163,0.0548783242702484,24.746333,46.390722,0.1805185884434568,1.2894184888818343,7.0,1.75,A,height_noise,1,2.398013704,142.2910102,2522.2
id_010068,Al-Rawdah,1976,14.0,12.0,3.0,full,,1.0,735.857666015625,749.857666015625,1.0991813965688308,0.1005179698421248,1.243207640746684,0.999570227931141,1275,0.0,True,0.0,stage_1_fast_path,557.8702387328099,46.48918656106749,0.0019995265441157,0.0763508975505828,25.609444,45.510278,3.2828884377522414,1.094296145917414,14.0,1.1666666666666667,A,-,0,2.532336437,146.9631317,2475.0
id_010069,Al-Hanabij,1978,8.0,6.0,1.5,partial,1015.002197265625,0.99945068359375,1015.0,1019.0,0.6108825222244284,2.637682199075816e-10,2.739475948049413,0.9414569833558858,700,0.0,True,0.0,stage_1_fast_path,649.9089395079276,108.3181565846546,0.0073736157592528,0.0658595263957977,23.99162,43.332023,1.7580326300301583,1.172021753353439,4.0,0.6666666666666666,B,-,0,2.655281178,59.77164158,2536.0
id_010070,Hawtat Bani Tamim,1984,13.0,11.0,9.056604,full,,1.0,569.447265625,589.447265625,2.7239695337489302,0.01833488223831,1.3526365878408897,0.9980502264190017,3111,0.0,True,0.0,stage_2_upstream_walk,798.9413177573529,72.63102888703207,0.0188888302812292,0.1637980043888092,23.525,46.793306,9.288289557701273,1.0255819463566336,20.0,1.818181818181818,A,-,0,4.285464393,1736.611174,2553.6
id_010071,Al-Ha'ir,1976,14.0,12.0,3.8,full,,1.0,509.29583740234375,523.2958374023438,0.8771538544212769,0.0051778684632132,1.4950355373933697,0.9993503704332596,1008,0.0,True,471.98435659341055,stage_4_river_retry,294.9902228708816,24.582518572573463,0.0195234546519391,0.063745267689228,24.419556,46.813167,3.974820950925384,1.0460055134014168,14.0,1.1666666666666667,A,-,0,1.149761445,2962.116143,2529.9
id_010072,Al-Hariq,1983,10.0,8.0,6.0,full,,1.0,705.1834106445312,719.1834106445312,2.3566510817199164,0.0526945166197917,1.2708697035338816,0.9993741522810758,2695,0.0,True,0.0,stage_1_fast_path,1833.411487884741,229.17643598559263,0.0006762601309797,0.0528789013624191,23.671156,46.426503,6.685193884878946,1.1141989808131576,14.0,1.75,A,-,0,4.726971003,615.4349212,2546.3
id_010073,Al-Halwah,2001,15.0,13.0,10.0,full,,1.0,627.0,645.0,1.840376766549266,3.044407929112805e-05,1.8408894407112064,0.9983404625121696,2101,0.0,True,0.0,stage_1_fast_path,1302.2459674547677,100.17276672728984,0.0356470957694611,0.1765037626028061,23.451103,46.690972,10.493476189850991,1.0493476189850992,18.0,1.3846153846153846,A,-,0,5.288808587,224.0977882,2552.4
id_010074,Ghubaira,1970,6.0,4.0,0.09,full,,1.0,665.3566284179688,667.6320190429688,0.0190952141496121,1.327163056249953e-13,4.047262725535581,0.984189033091788,22,0.0,False,0.0,stage_1_fast_path,206.22863452213247,51.557158630533145,0.0187787617415679,0.0706968083977699,24.748333,46.543889,0.0284258301545362,0.3158425572726245,2.275390625,0.56884765625,B,sub_pixel;height_noise,2,3.528213411,1370.913011,
id_010075,Al-Jafnah,1982,6.0,4.0,0.1,full,,1.0,1002.0,1005.0,0.0923891807475471,0.0011829903645536,1.5987634854657122,0.9975999969793368,106,0.0,True,0.0,stage_1_fast_path,324.7508605367658,81.18771513419145,0.0058269837376012,0.122027613222599,24.157675,43.449883,0.1043736263633846,1.0437362636338468,3.0,0.75,A,height_noise,1,3.046439785,15.96755616,2541.2
id_010076,Isam,1982,6.0,4.0,0.126,full,,1.0,1032.83544921875,1036.8829345703125,0.056422412918879,5.2794659502994976e-08,2.600117200433438,0.9720901476506874,65,0.0,False,0.0,stage_2_upstream_walk,206.2372880194474,51.55932200486185,0.002539322977496,0.0317174084484577,24.720461,43.610381,0.1358478095662241,1.0781572187795567,4.0474853515625,1.011871337890625,B,height_noise,1,1.132961897,4.425355229,2513.1
id_010077,Al-Ma'idhar,2012,6.5,5.0,0.187701,full,,1.0,723.08056640625,728.58056640625,0.1178682712810731,0.014803326339003,1.4151275774768484,0.9984516470470453,137,0.0,True,0.0,stage_1_fast_path,175.99058049856984,35.19811609971397,0.0089088796131586,0.0627118051052093,25.879722,45.349167,0.2241217859030624,1.1940361846930083,5.5,1.1,A,-,0,1.591552234,13.66946526,2475.8
id_010078,Al-Rimah,1975,11.0,9.0,0.2,full,,1.0,733.7472534179688,739.2472534179688,0.1192661230548058,0.0254351311907368,1.3581118787297008,0.9975953373649584,138,0.0,True,0.0,stage_5_relaxed_alignment,1293.515640354354,143.72396003937266,0.0065811521567641,0.043290089815855,25.262201,45.199849,0.20374629355196,1.0187314677598,5.5,0.6111111111111112,A,-,0,2.030138797,14.26810469,2496.7
id_010079,Al-Buq,2017,5.0,4.0,0.221459,full,,1.0,959.5597534179688,964.050537109375,0.0624324361747245,0.0003479483006162,1.7776216958303286,0.9954074128318032,71,0.0,False,0.0,stage_2_upstream_walk,296.5350041677966,74.13375104194915,0.0049902325721286,0.1744261980056762,22.766667,44.8675,0.1204682219146094,0.5439752817208124,4.49078369140625,1.1226959228515625,A,height_noise,1,0.230698043,4.761374446,
id_010080,Al-Tamriyah,1982,6.0,4.0,0.241922,full,,1.0,626.07666015625,631.6522827148438,0.0732599170424906,0.0004972571199317,1.7547941970067091,0.978638608360044,85,0.0,False,0.0,stage_1_fast_path,234.86253027273327,58.71563256818335,0.0033651262384987,0.0704919770359993,25.663353,45.906617,0.1943542505068428,0.8033756768993431,5.57562255859375,1.3939056396484375,B,height_noise,1,2.044844061,17.08179711,2479.4
id_010081,Hajilah,1982,6.5,5.0,0.197,full,,1.0,808.03759765625,810.486083984375,0.0122212943869377,3.299443361136729e-07,2.6284241427350543,0.9972932474054764,14,0.0,False,0.0,stage_1_fast_path,147.7286024325506,29.54572048651012,0.002224179028324,0.1103266701102256,23.851395,45.396239,0.0181137041806399,0.0919477369575629,2.448486328125,0.489697265625,D,sub_pixel,1,5.483205531,22.23968603,2537.4
id_010082,Safar,1970,4.0,3.0,0.3,full,,1.0,639.826171875,652.326171875,0.0911512809185306,0.9473799651320493,1.11765530772552,0.9814981621270752,105,0.0,True,88.39098899703552,stage_4_river_retry,265.17296699110653,88.3909889970355,0.0084098005917867,0.1023508682847023,24.726056,46.551944,0.3038376030617687,1.012792010205896,12.5,4.166666666666667,D,height_noise,1,2.911677702,59.51925615,2520.2
id_010083,Ashirah,1977,5.0,3.0,0.3,full,,1.0,670.26904296875,675.26904296875,0.187914222610004,0.004565231124474,1.4867375935809115,0.999509066630767,218,0.0,True,0.0,stage_1_fast_path,264.2372789627258,88.07909298757527,0.0009830969918283,0.0483899861574173,25.634444,45.693889,0.3169975016735275,1.0566583389117583,5.0,1.6666666666666667,A,height_noise,1,1.060855371,488.0906217,2475.0
id_010085,Al-Sadarih,1982,4.0,4.0,0.3,full,,1.0,919.4207153320312,920.4427490234376,0.0078622568211864,0.0017340873374999,1.6680875342929404,0.644736842105263,9,0.0,False,,stage_6_fallback,118.22534059652344,29.55633514913086,0.004826333853799,0.1129305586218833,23.741944,45.151389,0.0074254647755649,0.0247515492518833,1.02203369140625,0.2555084228515625,D,sub_pixel;height_noise,2,7.245674386,10.91063281,2533.0
id_010086,Al-Sadirah Am Nakhlah,1982,6.5,5.0,0.216,full,,1.0,695.9432373046875,703.4432373046875,0.0575599529724014,5.982216266250524e-05,2.001200713550984,0.990123033845732,67,0.0,True,0.0,stage_2_upstream_walk,117.24188846704814,23.44837769340963,0.0024881390137366,0.0882179960608482,26.070556,44.966944,0.2164941514782861,1.0022877383253987,7.5,1.5,A,-,0,5.46540319,13.37176396,2477.0
id_010087,Al-Haysiyah,2009,7.0,5.0,0.43646,full,,1.0,797.0479736328125,801.7113647460938,0.1239379321794623,0.0013175619330018,1.6098720038091725,0.976269631548012,143,0.0,False,0.0,stage_1_fast_path,294.3974908911091,58.87949817822182,0.0111719634610885,0.0854934304952621,24.917222,46.180833,0.2331419843096179,0.5341657524392108,4.66339111328125,0.93267822265625,B,-,0,3.01223954,129.1976835,2512.9
id_010088,Sh'ib Al-Isar,2015,9.0,7.0,0.719462,full,,1.0,634.5908203125,642.5908203125,0.2544602570089583,0.0041183357322964,1.524742906754848,0.9977649307761268,285,0.0,True,0.0,stage_3_quality_recovery,119.52191478044362,17.07455925434909,0.0028062427824839,0.0946303009986877,20.340036,45.395295,0.7388275883330283,1.026916763266202,8.0,1.1428571428571428,A,-,0,0.871035162,120.2241111,2641.8
id_010090,Al-Barah,1982,6.5,5.0,0.6,full,,1.0,724.7999267578125,729.2999267578125,0.4843054940742355,0.0197589291418556,1.3208137117661576,0.9980384935347344,559,0.0,True,0.0,stage_1_fast_path,794.72625003003,158.945250006006,0.0043458354025351,0.0662167891860008,24.94801,45.897367,0.6341889475176036,1.056981579196006,4.5,0.9,A,-,0,2.065483758,79.17073319,2508.6
id_010091,Al-Majma'ah,1969,8.0,6.0,1.3,full,,1.0,716.4698486328125,732.9698486328125,0.3691306910204563,0.0022809695625061,1.5699395125067603,0.9956321335932028,429,0.0,True,0.0,stage_1_fast_path,264.0000087088407,44.00000145147345,0.0120451065632718,0.0814470276236534,25.863889,45.282222,1.3199218648610258,1.0153245114315583,16.5,2.75,A,-,0,1.401897418,361.2981246,2475.8
id_010092,Al-Safrat,1977,13.0,11.0,0.935,full,,1.0,716.149658203125,729.149658203125,0.3898372100244408,0.0536160240415566,1.3003374000386572,0.9994127935188676,451,0.0,True,0.0,stage_2_upstream_walk,646.8090011190848,58.80081828355316,0.0076176556586665,0.1519483178853988,25.275316,46.025063,1.0031176989653294,1.0728531539736144,13.0,1.181818181818182,A,-,0,3.398027037,74.14316739,2501.9
id_010093,Samnan,1979,21.0,19.0,1.5,full,,1.0,666.7867431640625,682.7867431640625,0.3868832516321469,0.1795610826158862,1.245211571112211,0.99875382635628,451,0.0,True,0.0,stage_2_upstream_walk,322.17688551453267,16.956678184975402,0.0221118924996655,0.061141051352024,26.267931,44.881722,1.6311718469590408,1.0874478979726938,16.0,0.8421052631578947,A,-,0,4.487500311,55.47979833,2477.0
id_010094,Al-Ghil,1984,12.0,10.0,2.5,full,,1.0,702.6876831054688,713.00048828125,0.7645342109087373,0.0001075909522203,1.756407687250226,0.9936238193420276,868,0.0,False,0.0,stage_2_upstream_walk,148.38931437638809,14.83893143763881,0.0121989837768248,0.1152905896306037,22.600798,46.459552,2.4660191900826463,0.9864076760330583,10.31280517578125,1.031280517578125,A,-,0,2.878244838,436.5609916,2572.9
id_010095,Al-Alab,1974,10.0,8.0,3.0,full,,1.0,650.2864990234375,667.7864990234375,0.7254739955408033,0.6942613172557336,1.1338409849049025,0.9989903314105352,836,0.0,True,0.0,stage_3_quality_recovery,324.0413787528741,40.50517234410927,0.0077978374988475,0.0956145599484443,24.774639,46.530889,3.0778407819190723,1.0259469273063575,17.5,2.1875,A,-,0,1.714094796,1326.526895,2520.2
id_010096,Al-Mushaqar,2008,15.0,13.0,5.5792,full,,1.0,719.8338623046875,736.3338623046875,1.6770063285337005,0.0833192328190798,1.260289725869588,0.9997143513219936,1949,0.0,True,0.0,stage_1_fast_path,528.0000167359127,40.61538590276252,0.0120417770242549,0.0815145894885063,25.863889,45.282222,5.82994170291436,1.0449422323835604,16.5,1.2692307692307692,A,-,0,1.502955,259.654785,2475.8
id_010097,Ari'ah Al-Janubi,2011,10.5,8.0,0.050582,full,,1.0,649.2897338867188,655.2897338867188,0.0231495581671643,0.0187237938219032,1.4856702380257631,0.9895756524845608,27,0.0,True,0.0,stage_1_fast_path,117.12496186404044,14.640620233005055,0.0012421171559593,0.0485119745135307,26.336944,44.844444,0.0591599819827532,1.1695856625430636,6.0,0.75,B,sub_pixel,1,0.203723769,4.528318784,
id_010098,Abaraqih,2011,3.5,1.5,0.133792,full,,1.0,955.1110229492188,958.6110229492188,0.1421216000535604,0.0259630679778774,1.3088438620105929,0.9990448408872188,163,0.0,True,590.5630048590275,stage_4_river_retry,88.58445072885412,59.056300485902746,0.0011553429532646,0.0333392582833766,24.183789,42.869732,0.143865423367101,1.0752916719019152,3.5,2.333333333333333,D,narrow_valley;height_noise,2,0.747753327,892.6826648,2547.0
id_010099,Jawi,2011,6.0,3.5,0.138033,full,,1.0,2240.0,2242.54248046875,0.0189928286031652,8.68030575718402e-08,2.682346124125884,0.9551722400904296,21,0.0,False,0.0,stage_1_fast_path,120.29433301196092,34.369809431988834,0.0039753445895945,0.125201016664505,18.212241,43.168404,0.0289414531095851,0.2096705361006795,2.54248046875,0.7264229910714286,C,sub_pixel;height_noise,2,12.4990975,25.22655181,2491.7
id_010100,Al-Ananiyah,1964,8.0,6.5,0.3,full,,1.0,783.7232055664062,790.2232055664062,0.1319600932342705,0.0003528225970058,1.752043812747909,0.9960166599176145,153,0.0,True,0.0,stage_2_upstream_walk,704.8339799093831,108.43599690913584,0.0101262957894988,0.0608023069798946,25.551695,45.574323,0.323862843199141,1.0795428106638034,6.5,1.0,A,-,0,3.207342355,148.2369313,2475.0
id_010102,Al-Kalbi,2011,7.0,3.5,0.595591,full,,1.0,723.6856689453125,729.1856689453125,0.4961711843094062,0.0028855142730704,1.4812521343700191,0.9993967988547502,577,0.0,True,0.0,stage_1_fast_path,615.8105960932646,175.9458845980756,0.0009553381767115,0.0462817661464214,25.946111,45.253889,0.7851027578414002,1.318191104031794,5.5,1.5714285714285714,A,height_noise,1,0.805703062,169.3549304,2475.8
id_010103,Khaim,2018,7.0,4.0,0.569546,full,,1.0,919.1248779296876,925.0055541992188,0.1310310958901565,0.0009750984441206,1.6366688968178222,0.9968201994648156,149,0.0,False,0.0,stage_3_quality_recovery,88.96420602184176,22.24105150546044,0.0009466663794538,0.1324391663074493,22.753504,44.918774,0.238758003585084,0.4192075856648699,5.88067626953125,1.4701690673828125,B,narrow_valley;height_noise,2,1.02240027,74.54356032,
id_010104,Ba'ij,2017,8.0,4.0,0.14003,full,,1.0,701.4828491210938,708.6159057617188,0.0421117189697191,8.598373064096092e-05,1.993885133109308,0.9930637550903302,49,0.0,False,0.0,stage_3_quality_recovery,175.8954862985455,43.97387157463638,0.0446348102381825,0.1239069104194641,26.020773,45.018252,0.1495395734843088,1.0679109725366622,7.133056640625,1.78326416015625,A,height_noise,1,0.266341581,5.51298621,
id_010105,Ari'ah Al-Shamali,2011,10.5,8.0,0.03774,full,,1.0,647.0134887695312,652.5134887695312,0.0188621727977651,0.0133691655946076,1.5248413842061856,0.9787975868762452,22,0.0,True,0.0,stage_2_upstream_walk,87.84271977385247,10.980339971731558,0.000863583445588,0.0490154065191745,26.339944,44.841094,0.0465124033763072,1.2324431207288629,5.5,0.6875,B,sub_pixel;narrow_valley,2,0.188531436,4.465095402,
id_010106,Ruwaighib,2017,7.0,4.0,0.14003,full,,1.0,650.7872924804688,659.2872924804688,0.0525861867270565,0.0005678972485095,1.788724837001208,0.9886092983463458,61,0.0,True,0.0,stage_5_relaxed_alignment,176.16603207006762,44.0415080175169,0.0154040655823405,0.0846087858080864,25.670833,46.384722,0.1573275258637348,1.1235272860368128,8.5,2.125,B,height_noise,1,1.863393277,5.320263132,2484.9
id_010107,Malih,2014,10.5,7.875,0.22604,full,,1.0,724.2266235351562,731.7266235351562,0.131383911654589,0.1161014510538752,1.2455373069671969,0.9958364525599284,153,0.0,True,0.0,stage_3_quality_recovery,351.64676347599533,44.65355726679306,0.0007240531984014,0.0696785673499107,26.130556,44.946111,0.2850945011066899,1.261256862089409,7.5,0.9523809523809524,A,-,0,0.533855017,16.29813866,
id_010108,Aba Al-Lasf,2017,9.0,6.75,0.70033,full,,1.0,571.1279907226562,580.1279907226562,0.2233707410455478,1.0332337243886433e-05,2.02577175162338,0.9913420916522606,255,0.0,True,0.0,stage_1_fast_path,207.17678641286085,30.69285724634976,0.0174695930653289,0.0942296311259269,23.471111,46.853333,0.7270498630109988,1.0381532463424368,9.0,1.3333333333333333,A,-,0,1.051770053,34.18418357,
id_010110,Wadi Asimar,2017,12.0,9.0,0.726465,full,,1.0,648.3804931640625,657.8804931640625,0.2496843134495582,0.0022124815266054,1.5853953823356552,0.998386365362479,280,0.0,True,0.0,stage_3_quality_recovery,179.1710603643514,19.907895596039044,0.0125875534192756,0.0809720009565353,20.55081,45.439544,0.7969834112340811,1.097070624509207,9.5,1.0555555555555556,A,-,0,0.90285265,131.8062394,
id_010112,Al-Khadar,2017,8.5,6.375,0.265139,full,,1.0,840.868408203125,843.7256469726562,0.0278678915197132,6.466405346239073e-08,2.6676828028742805,0.9862042871878194,32,0.0,False,0.0,stage_1_fast_path,118.0421355273473,18.51641341605448,0.0038313662695228,0.1142237037420272,24.189444,45.092778,0.0476802206470094,0.1798310344649764,2.85723876953125,0.4481943167892157,C,-,0,0.159713895,123.6827462,2515.7
id_010113,Turif,2017,6.0,4.5,0.08,full,,1.0,922.3585815429688,927.4834594726562,0.0184647566258714,0.000118134565217,2.026373743713355,0.9941085153366208,21,0.0,False,0.0,stage_1_fast_path,88.95767041336829,19.76837120297073,0.0494429725888123,0.1410896778106689,22.776839,44.816382,0.0514375363149274,0.6429692039365936,5.1248779296875,1.1388617621527777,A,sub_pixel;narrow_valley;height_noise,3,0.702493865,6.965892372,
id_010114,Samanan Al-Tad'imi,2014,10.0,7.5,0.280037,full,,1.0,692.8143310546875,699.8143310546875,0.1921788868671993,0.0805318112996036,1.258253029865762,0.9974323818055436,224,0.0,True,0.0,stage_1_fast_path,175.74382644129625,23.432510192172835,0.0046150794692192,0.0430446490645408,26.251389,44.890556,0.3618368104296487,1.2921035807041523,7.0,0.9333333333333332,A,-,0,0.797368484,45.65029317,2477.0
id_010115,Ari'ah Al-Sharqi 1,2014,8.5,6.375,0.064,full,,1.0,672.3067016601562,676.6530151367188,0.0162903922366154,0.0121071801058149,1.5167350524941656,0.9850080111328116,19,0.0,False,0.0,stage_1_fast_path,204.96844681356703,32.15191322565758,0.0017905518617666,0.0444316454231739,26.337337,44.84717,0.0308660063430607,0.4822813491103246,4.3463134765625,0.6817746629901961,D,sub_pixel,1,0.397396833,5.442113548,
id_010116,Ari'ah Al-Sharqi 2,2014,7.0,5.25,0.076,full,,1.0,677.9996948242188,681.8359985351562,0.0240062350182701,0.0076050069474668,1.5362610473256433,0.9864085595569742,28,0.0,False,0.0,stage_2_upstream_walk,380.65046387202506,72.5048502613381,0.005932747523398,0.0402693636715412,26.340833,44.849722,0.0409392043615143,0.5386737415988726,3.8363037109375,0.7307245163690477,B,sub_pixel,1,0.397396833,5.442113548,
id_020000,Marikh,2001,12.0,9.0,3.65,full,,1.0,55.72433090209961,74.43397521972656,0.7360918016627778,0.0218728527864297,1.397039815940914,0.9957458219978318,832,0.0,False,237.95471477100875,stage_4_river_retry,1041.0518771231632,115.67243079146256,0.0064157808622157,0.0882375389337539,21.82343333,39.24988889,3.7244741130407193,1.0204038665864985,18.70964431762696,2.078849368625217,A,-,0,6.470386354,35.39477876,2535.6
id_020001,Ghaya,2001,19.0,14.25,7.13,full,,1.0,65.93748474121094,90.43748474121094,1.2017722833930111,0.01272623560957,1.435965786949031,0.9960099464198944,1358,0.0,True,0.0,stage_2_upstream_walk,654.4611748814889,45.92709999168344,0.0071512965892815,0.1308966279029846,21.78256944,39.27240556,7.20643015223869,1.010719516443014,24.5,1.719298245614035,A,-,0,6.477824607,45.21934477,2535.6
id_020002,Am Hablayn,2001,10.0,7.5,4.97,full,,1.0,51.0,60.81878280639648,0.9986027598842688,3.738562620950433e-05,1.8314887613975064,0.997962158913922,1128,0.0,False,0.0,stage_3_quality_recovery,714.0901998752851,95.212026650038,0.0032685829708735,0.0801205262541771,21.723042,39.238089,3.7936724085053752,0.7633143679085262,9.818782806396484,1.3091710408528645,A,-,0,6.298385009,38.42386675,2519.6
id_020003,Daghbaj,2001,14.0,10.5,5.13,full,,1.0,62.39459228515625,72.5711784362793,0.719114509653261,4.9025418794647614e-05,1.8332713633891309,0.9978183627254964,812,0.0,False,0.0,stage_2_upstream_walk,1785.5576262052996,170.05310725764758,0.0184165761754739,0.1161260455846786,21.66448056,39.25558889,2.796974630680309,0.5452192262534715,10.176586151123049,0.9691986810593378,A,-,0,9.798900896,43.9948894,2519.6
id_020004,Burayman,2001,20.0,15.0,5.99,full,,1.0,58.36553955078125,71.86553955078125,1.9432675088509928,0.001965891708477,1.5176192787683715,0.9992341339198412,2194,0.0,True,0.0,stage_5_relaxed_alignment,446.41547614685646,29.761031743123763,0.0023337989247363,0.0865194648504257,21.64580833,39.25259722,6.8610008844289,1.145409162675943,13.5,0.9,A,-,0,5.089235947,51.16239018,2519.6
id_020005,Ghulail Al-Shamali,2001,10.0,7.5,1.02,full,,1.0,66.7439956665039,83.2439956665039,0.4621059914279615,0.7103383243986569,1.0857436802525773,0.9929762212575938,521,0.0,True,0.0,stage_3_quality_recovery,238.2549459979673,31.767326133062305,0.0060618318201939,0.1210531145334243,21.42416389,39.32467778,1.0231079867795656,1.0030470458623193,16.5,2.2,A,-,0,1.646440598,25.09002133,2486.4
id_020015,Turabah,1981,20.0,16.0,20.0,full,,1.0,1190.6895751953125,1219.8912353515625,3.498587920208521,0.0210337485511727,1.3592450386540584,0.9962280681539653,3928,0.0,False,0.0,stage_2_upstream_walk,507.3522351024059,31.70951469390037,0.0071340545926722,0.0705436393618583,21.013245,41.504203,17.80935338888733,0.8904676694443665,29.20166015625,1.825103759765625,A,-,0,3.024193349,4692.550298,2566.3
id_020017,Al-Marwani,2009,61.0,53.35,183.6,full,,1.0,184.0,243.5,8.056221288735253,0.0022242082007586,1.58261051638646,0.9987889332331248,9126,0.0,True,0.0,stage_3_quality_recovery,564.5196481820525,10.581436704443345,0.0347122306908162,0.1740545183420181,22.17922,39.570881,186.66823523728684,1.016711520900255,59.5,1.1152764761012184,A,-,0,3.652075304,2774.664904,2551.8
id_020018,Rabigh,2008,60.0,50.5,220.35,full,,1.0,111.3022003173828,168.7603530883789,11.828348775347628,0.7153728847324984,1.1868243793344917,0.998040593952442,13456,0.0,False,0.0,stage_1_fast_path,385.4316941966903,7.632310776172084,0.0077953127114709,0.1267337799072265,22.821667,39.375833,173.48120339984942,0.7872984043560219,57.458152770996094,1.1377852033860614,A,-,0,3.98579191,3719.25756,2560.7
id_020019,Hali,2009,87.0,47.0,254.0,full,,1.0,73.18768310546875,119.9498519897461,14.619766016854149,0.0086917220282561,1.4536509181625397,0.9997453581391772,16199,0.0,False,0.0,stage_2_upstream_walk,390.54354186568025,8.30943706097192,0.015427267754588,0.1854566037654876,18.7675,41.575,230.40323452631148,0.9070993485287854,46.762168884277344,0.9949397634952626,A,-,0,9.660225664,4897.33871,2458.1
id_020020,Al-Naqabiyah,1989,20.0,18.0,10.0,full,,1.0,968.1435546875,989.1435546875,1.4306833014192533,0.0046447898519264,1.5219737791337486,0.9958951269286084,1607,0.0,True,0.0,stage_5_relaxed_alignment,745.9398766364061,41.44110425757812,0.0008336086400941,0.0424336604773998,21.068958,42.575023,10.114049561775625,1.0114049561775624,21.0,1.1666666666666667,A,-,0,1.644789127,8135.756471,2588.9
id_020021,Al-Lith,2001,44.5,33.375,88.0,full,,1.0,196.4278106689453,231.64352416992188,4.098907837958673,0.0012967136760807,1.594110600424828,0.99533085481349,4593,0.0,False,0.0,stage_2_upstream_walk,358.4817905220146,10.741027431371224,0.0123655573218335,0.2755632400512695,20.51,40.477222,48.58093750815507,0.5520561080472167,35.21571350097656,1.055152464448736,A,-,0,4.870778709,1888.593333,2461.0
id_020023,Qununa,2015,46.0,38.0,79.2,full,,1.0,211.41534423828125,248.8406982421875,5.90152066046643,0.0025310428860963,1.5473166098615423,0.9996707370212208,6557,0.0,False,0.0,stage_1_fast_path,330.0061695959564,8.684372884104116,0.0409080782467725,0.2272470146417617,19.255286,41.559011,75.70588067634641,0.9558823317720506,37.42535400390625,0.9848777369449012,A,-,0,7.61731661,1393.696797,2453.2
id_020024,Al-Manadhah,2003,12.0,8.5,0.107,full,,1.0,1907.290283203125,1911.7901611328125,0.0124828035723984,0.0023507109327896,1.7274328878838696,0.9860288124807725,14,0.0,False,0.0,stage_1_fast_path,89.58046349176257,10.53887805785442,0.0261941899781996,0.3056072890758514,20.7225,40.903889,0.0274175864179466,0.2562391254013701,4.4998779296875,0.5293974034926471,D,sub_pixel;narrow_valley,2,13.10076071,4.116717789,2403.9
id_020025,Katnah,2014,17.0,14.0,0.114652,full,,1.0,1740.587890625,1750.587890625,0.0249389653910927,0.0003546260184063,1.9447156150832587,0.9899005533045764,28,0.0,True,0.0,stage_2_upstream_walk,149.22108894155772,10.658649210111266,0.0300761583378673,0.3319059014320373,20.902461,40.92971,0.1235814802862187,1.0778833364112164,10.0,0.7142857142857143,B,sub_pixel,1,10.6281808,23.37010464,2417.0
id_020026,Atam,1983,13.0,10.0,0.041,full,,1.0,1834.0836181640625,1840.5836181640625,0.0142303878840126,0.0004462229476187,1.908544645042767,0.9673081984780072,16,0.0,True,0.0,stage_2_upstream_walk,119.2911894651596,11.92911894651596,0.0465427635210048,0.2138567119836807,21.072053,40.494542,0.0433582130841009,1.057517392295144,6.5,0.65,D,sub_pixel,1,0.174986462,4.29004701,
id_020027,Damah,1984,10.0,8.5,0.083,full,,1.0,1805.032958984375,1810.532958984375,0.0312129667422057,5.06823685668856e-05,2.0546792281381707,0.9826348369568088,35,0.0,True,0.0,stage_2_upstream_walk,328.49305171198705,38.64624137788083,0.0069460479661138,0.2690401971340179,20.689167,40.893333,0.0851668092537328,1.0261061355871428,5.5,0.6470588235294118,B,-,0,0.250867677,15.64798116,
id_020028,Ghurif Jidarah,1983,15.0,12.0,0.04,full,,1.0,2064.4111328125,2070.4111328125,0.0169199292453362,0.0001009628009626,2.0546228988529864,0.9660380911958923,19,0.0,True,0.0,stage_2_upstream_walk,149.2081257723421,12.434010481028508,0.0380702190084517,0.2834289669990539,20.902058,40.74965,0.0463071747767097,1.157679369417743,6.0,0.5,D,sub_pixel,1,0.087824667,5.311795012,
id_020029,Dhari,2013,6.0,5.0,0.171859,full,,1.0,920.3418579101562,925.3418579101562,0.1102125716966408,0.0034093482148152,1.539846033035903,0.9952173998770188,125,0.0,True,0.0,stage_1_fast_path,445.4016491369935,89.0803298273987,0.0010597050405656,0.038099780678749,22.57571,41.349388,0.205877083929325,1.1979418239913244,5.0,1.0,A,-,0,0.804435672,27.59028883,2574.1
id_020030,Al-Raghiyah Riman,2011,8.0,5.0,0.171585,full,,1.0,966.1747436523438,969.0029907226562,0.078982233110772,1.048555536798499e-05,2.0456581477670865,0.9891079559031388,90,0.0,False,0.0,stage_2_upstream_walk,207.3678808952241,41.47357617904483,0.0041181121426421,0.0315793417394161,23.330757,41.624444,0.1121108919989013,0.6533839904356522,2.8282470703125,0.5656494140625,B,-,0,0.479292138,61.13569323,2569.6
id_020031,Al-Shawahitah,1984,17.0,16.0,0.21,full,,1.0,1936.5989990234373,1948.0989990234373,0.0409461192496306,0.0056009070784878,1.6412457356847474,0.9932545667199066,46,0.0,True,0.0,stage_2_upstream_walk,149.17548618706456,9.323467886691535,0.0252905778146668,0.198439747095108,20.986314,40.832006,0.2160797923445182,1.0289513921167537,11.5,0.71875,A,-,0,7.745243374,9.682678193,2481.0
id_020032,Nawafilah,1987,15.0,12.0,0.222,full,,1.0,2084.37841796875,2098.26708984375,0.0089114037844624,0.0353699130954196,1.5693394390163498,0.9774798867045916,10,0.0,False,0.0,stage_2_upstream_walk,149.25987224018385,12.438322686681987,0.0177677663143028,0.2680909931659698,20.809167,40.881944,0.0585924798828402,0.2639300895623436,13.888671875,1.1573893229166667,D,sub_pixel,1,9.63176116,4.290610206,2417.0
id_020033,Al-Atah,1984,18.0,15.0,0.21,full,,1.0,2190.1845703125,2206.1845703125,0.0303126581541553,0.0002458874538434,1.9953440163106853,0.9925672837249828,34,0.0,True,0.0,stage_2_upstream_walk,149.2940696444321,9.952937976295477,0.0677455177993084,0.288505345582962,20.73175,40.870028,0.2159776893483565,1.0284651873731263,16.0,1.0666666666666669,A,-,0,3.672893756,7.120548157,2417.0
id_020034,Al-Marifiq,1983,14.0,12.0,0.25,full,,1.0,1884.9686279296875,1900.4686279296875,0.0561465698960389,0.1716551804063105,1.3039452774970903,0.9944545711936122,63,0.0,True,0.0,stage_1_fast_path,119.4129236004359,9.951076966702992,0.0896143618668958,0.3364607393741607,20.799722,40.908333,0.2740487340163806,1.0961949360655223,15.5,1.2916666666666667,A,-,0,10.03381411,16.34838217,2417.0
id_020035,Al-Ramah,2015,14.0,11.0,0.302876,full,,1.0,1802.0625,1811.0625,0.103526362969098,0.0021771340250377,1.6359170613718463,0.9973163684013524,116,0.0,True,0.0,stage_3_quality_recovery,179.24528241008684,16.295025673644258,0.0263081320340324,0.2172156572341919,20.599718,41.090631,0.3482858892128491,1.149928978238121,9.0,0.8181818181818182,A,-,0,2.095465261,30.48814343,2402.2
id_020036,Al-Shu'irah,1984,15.0,12.0,0.171,full,,1.0,1915.0240478515625,1925.8992919921875,0.0133921592054229,0.0030953097136166,1.7918941918659734,0.9663341778618262,15,0.0,False,0.0,stage_1_fast_path,149.3996832070657,12.449973600588809,0.0795620807597411,0.4237589240074157,20.525995,41.036911,0.0723176597092839,0.4229102906975668,10.875244140625,0.9062703450520834,D,sub_pixel,1,9.219152817,4.098645801,2402.2
id_020037,Yasib,1983,9.0,8.0,0.2,full,,1.0,1810.0218505859373,1818.5218505859373,0.0612551443086361,0.000792851780755,1.7553669332394366,0.9937674166699372,69,0.0,True,0.0,stage_2_upstream_walk,148.97614864617725,18.62201858077216,0.0128534492302063,0.1527358740568161,21.351155,40.330275,0.2050715700767385,1.0253578503836924,8.5,1.0625,A,-,0,5.917270237,22.20793948,2445.4
id_020038,Al-Bajidi,2009,9.0,7.0,0.499636,full,,1.0,598.3997192382812,607.466064453125,0.1587269733896739,0.2523275033963312,1.208714312326866,0.9825002057526367,179,0.0,False,0.0,stage_2_upstream_walk,476.45164941815096,68.06452134545013,0.0067655226652873,0.1885668784379959,21.513889,40.138889,0.5249517779144521,1.0506684424550117,9.06634521484375,1.2951921735491072,B,-,0,3.714302256,116.8292366,2515.5
id_020039,Qurad,2009,13.0,11.0,0.37,full,,1.0,980.0,984.5,0.2936502459523237,0.0005513330348899,1.634762535318382,0.9961805586540624,333,0.0,True,0.0,stage_2_upstream_walk,564.2176511988001,51.29251374534547,0.0020427044762433,0.0634451508522033,22.421256,40.492924,0.492723948726309,1.3316863479089431,4.5,0.4090909090909091,A,-,0,2.647001371,55.29707092,
id_020040,Sa'b,1976,9.0,7.0,0.5,full,,1.0,1715.129638671875,1725.129638671875,0.201668698811579,0.1079644244229627,1.261227673115774,0.9991361709493376,227,0.0,True,0.0,stage_3_quality_recovery,268.25561979109807,38.3222313987283,0.0223456283267746,0.1350940763950348,21.238794,40.383617,0.5361544481620614,1.0723088963241227,10.0,1.4285714285714286,A,-,0,3.853018263,232.5643582,2445.4
id_020041,Misan,2009,16.0,14.0,0.092512,full,,1.0,2340.30517578125,2348.91064453125,0.0169360787111057,0.0115198011143188,1.6007727271638663,0.9767264930190706,19,0.0,False,0.0,stage_2_upstream_walk,238.846905107674,17.060493221976717,0.0315466522895795,0.4441885650157928,20.754167,40.807778,0.0699727462537791,0.7563639987653406,8.60546875,0.6146763392857143,D,sub_pixel,1,0.087354212,4.04355854,
id_020042,Ikrimah,1955,18.0,12.0,0.5,full,,1.0,1727.1650390625,1740.6650390625,0.1199294101512036,0.0393040788272398,1.4047787194492565,0.995661623874937,135,0.0,True,0.0,stage_5_relaxed_alignment,1162.4133033063415,96.86777527552846,0.0165509294912706,0.1515981256961822,21.243556,40.358456,0.5161406466507356,1.0322812933014711,13.5,1.125,A,-,0,3.829213822,222.1927402,2445.4
id_020043,Dharah,2012,24.0,20.0,0.50991,full,,1.0,1869.730712890625,1885.730712890625,0.0792934096271887,0.0040228683051129,1.6586377413897426,0.9936215597498044,89,0.0,True,0.0,stage_3_quality_recovery,149.2428546717016,7.46214273358508,0.0097759596519834,0.4007025063037872,20.8425,40.856667,0.5283257517856509,1.0361156905839284,16.0,0.8,A,-,0,4.877032542,86.5480665,2417.0
id_020044,Al-Ayab,2009,23.0,19.0,0.52711,full,,1.0,1010.8629760742188,1030.3629760742188,0.0572860996335205,8.855271272187973e-05,2.050061514059904,0.9787123317305688,65,0.0,True,0.0,stage_1_fast_path,148.43555922912054,7.812397854164239,0.0240261390796595,0.2263151854276657,22.464327,40.04881,0.5279134412381357,1.001524238276898,19.5,1.0263157894736843,B,-,0,1.68675298,61.53827926,2486.8
id_020045,Al-Sab'an,2014,21.0,17.5,0.62,full,,1.0,689.2871704101562,710.8004760742188,0.073185315589199,0.0058923259705576,1.6437593604834813,0.9921328268942744,83,0.0,False,0.0,stage_1_fast_path,207.86002194105143,11.877715539488651,0.0314592459109705,0.2332002222537994,22.382778,39.956944,0.6419145752883966,1.0353460891748332,21.5133056640625,1.2293317522321427,A,-,0,2.200992825,163.7744433,2486.8
id_020046,Thumalah,1983,10.0,7.75,0.608,full,,1.0,1712.0,1715.1864013671875,0.0364548975669846,7.194431410456314e-06,2.158082601078793,0.9948710078817528,41,0.0,False,0.0,stage_1_fast_path,149.09257552752126,19.237751680970486,0.0149894199191838,0.1654386073350906,21.119969,40.505053,0.0502366271349909,0.0826260314720246,3.1864013671875,0.4111485635080645,C,-,0,3.92992574,26.91093679,2420.7
id_020047,Shawan,2010,19.0,16.0,1.0,full,,1.0,892.4977416992188,912.4376220703124,0.1013380897283416,0.0004915249737771,1.8447801738084888,0.995804183226802,115,0.0,False,0.0,stage_1_fast_path,178.1101571749129,11.131884823432056,0.0507162421875171,0.2266866415739059,22.483405,40.01693,0.8697451701032457,0.8697451701032457,19.93988037109375,1.2462425231933594,A,-,0,0.855467219,346.4440336,2486.8
id_020048,Hajar,2012,11.0,9.0,0.76255,full,,1.0,642.6268920898438,652.1268920898438,0.2477080549588124,0.0097616623946683,1.469229406874986,0.9928979552731252,282,0.0,True,0.0,stage_1_fast_path,503.8420749251518,55.98245276946131,0.0163386882809994,0.2333915084600448,22.949638,39.774944,0.8316226986959422,1.0905812060795257,9.5,1.0555555555555556,A,-,0,3.460681975,206.210978,2516.5
id_020049,Bathan,2008,13.0,10.0,0.7732,full,,1.0,654.2422485351562,666.2422485351562,0.1737316125828535,0.021731607472553,1.447638430114757,0.986897014360014,197,0.0,True,0.0,stage_3_quality_recovery,118.78628596188008,11.878628596188008,0.104597848451204,0.2673738300800323,22.3575,39.935833,0.8197133700292507,1.0601569710673189,12.0,1.2,B,-,0,4.228347907,71.24029711,2523.7
id_020050,Malkan,2007,12.0,9.0,0.8,full,,1.0,395.7696533203125,409.4328308105469,0.1777402128704145,0.0127018945152037,1.4786918103729991,0.9980492047509496,200,0.0,False,0.0,stage_1_fast_path,268.2998065830795,29.81108962034217,0.0783088873328683,0.1802593171596527,21.149047,40.034856,0.7716146991236869,0.9645183739046084,13.663177490234377,1.5181308322482638,A,-,0,3.020343143,120.9727352,2509.9
id_020051,Nu'man,2005,18.0,14.0,1.0,full,,1.0,854.2523803710938,865.2701416015625,0.0639516428242092,0.00064327987053,1.8076246882584648,0.9942987419259244,72,0.0,False,0.0,stage_1_fast_path,268.2267663325856,19.159054738041824,0.0145493530973987,0.3638017177581787,21.254992,40.217047,0.3368563964039079,0.3368563964039079,11.01776123046875,0.7869829450334821,B,-,0,3.451701754,73.81243921,2445.4
id_020052,Al-Qu'ur,2009,21.0,18.0,1.060425,full,,1.0,1132.58447265625,1146.58447265625,0.2028945184424147,0.0008211536200686,1.7172694973140283,0.993573600091693,230,0.0,True,0.0,stage_1_fast_path,178.206068602163,9.900337144564611,0.0402306089835358,0.1298906803131103,22.321667,40.062778,1.1183457641537884,1.0546203306728796,14.0,0.7777777777777778,A,-,0,1.535588208,92.58558951,2486.8
id_020053,Awathal,1983,11.0,9.0,0.213,full,,1.0,1707.7408447265625,1711.798583984375,0.0355779515150962,0.0001107906376245,1.9322269280822169,0.9604813720623474,40,0.0,False,0.0,stage_2_upstream_walk,357.88353615994487,39.76483735110499,0.010146075513114,0.1834707856178283,21.086467,40.665833,0.0789385799241198,0.3706036616155862,4.0577392578125,0.4508599175347222,B,-,0,6.430565977,9.244803598,2420.7
id_020054,Basal,1987,15.0,12.0,1.5,full,,1.0,1516.0965576171875,1533.3125,0.0391173050997795,0.0003627948813836,1.948212148234792,0.9895685931418784,44,0.0,False,0.0,stage_2_upstream_walk,149.0830021631093,12.423583513592442,0.0194356431797585,0.1708926111459732,21.168411,40.703213,0.3260516283032761,0.2173677522021841,17.2159423828125,1.434661865234375,C,-,0,4.859378669,130.4295103,2481.0
id_020055,Lasab,1983,13.0,11.0,0.21,full,,1.0,1672.942138671875,1684.442138671875,0.0497770891995954,0.0176025421036013,1.5182516816678313,0.9906294287138364,56,0.0,True,0.0,stage_2_upstream_walk,149.07016744220817,13.551833403837104,0.0097095404944091,0.1651447415351867,21.166314,40.486536,0.2277746269177916,1.0846410805609128,11.5,1.0454545454545454,A,-,0,6.555001723,16.33720822,2420.7
id_020056,Kara Al-Qawamah,2008,13.0,10.0,1.51217,full,,1.0,1294.5618896484375,1304.9735107421875,0.3739333180552049,0.0004413850032264,1.7045604269625936,0.9993501896779624,419,0.0,False,0.0,stage_1_fast_path,179.2426353159473,17.92426353159473,0.0078076720534767,0.0490792728960514,20.733056,41.695278,1.4167521298630976,0.9369000376036408,10.41162109375,1.041162109375,A,-,0,1.905138771,954.678449,2553.8
id_020057,Faydat Al-Musallah,2003,8.0,5.0,3.0,full,,1.0,901.9650268554688,917.9650268554688,1.777474721863022,3.5932766407618377,0.9483525381312496,0.9996991374104528,2016,0.0,True,0.0,stage_5_relaxed_alignment,326.62478575174583,65.32495715034916,0.0017499091313721,0.0534130595624446,22.478472,40.733306,3.073770460860595,1.0245901536201985,16.0,3.2,D,-,0,0.472129521,4155.499976,2564.7
id_020059,Am Al-Doum,2012,7.0,5.0,0.134745,full,,1.0,955.6675415039062,960.6675415039062,0.0696177452359795,0.0001838609292705,1.830408165226816,0.9934057488025866,79,0.0,True,0.0,stage_1_fast_path,385.9133329753042,77.18266659506085,0.0066177701099441,0.0595400817692279,22.653246,41.33666,0.1401167277534271,1.039865878165625,5.0,1.0,A,-,0,0.698615421,29.93434567,2574.1
id_020060,Thariban,2014,20.5,17.5,0.701658,full,,1.0,671.1839599609375,685.6839599609375,0.0998294113995305,3.663365216102557e-07,2.4531310310844705,0.9895127450252674,111,0.0,True,0.0,stage_3_quality_recovery,149.9469961905237,8.56839978231564,0.0535146025211199,0.2365849912166595,19.459628,41.84271,0.7136453868966438,1.0170843728663306,14.5,0.8285714285714286,B,-,0,3.203012117,80.2116308,2412.4
id_020061,Wabah,2013,18.0,14.0,0.703953,full,,1.0,442.09765625,456.09765625,0.1659159013094568,0.0732178040242245,1.3419241255767185,0.9978666304564118,188,0.0,True,0.0,stage_1_fast_path,118.82971951116735,8.487837107940527,0.0297699810978052,0.259878009557724,22.238312,39.849221,0.7609626909791447,1.0809850813607509,14.0,1.0,A,-,0,2.774494374,531.6654511,2531.9
id_020062,Shawqab,2010,18.0,15.0,0.345489,full,,1.0,1867.26318359375,1882.26318359375,0.0562441350509145,2.9441627430178e-05,2.117498446317456,0.9882501143971212,63,0.0,True,0.0,stage_1_fast_path,119.51662969995198,7.967775313330132,0.0090296611048428,0.2469135820865631,20.549722,41.117139,0.3615694396130222,1.0465439988336016,15.0,1.0,B,-,0,3.90959392,52.5295914,2402.2
id_020063,Qarn,1987,23.0,20.0,0.709801,full,,1.0,1268.19921875,1281.04052734375,0.0274807794280722,0.0017043479953901,1.7982832827782362,0.989418196610682,31,0.0,False,238.19007613171664,stage_4_river_retry,178.64255709878748,8.932127854939374,0.0295564314965022,0.2817936241626739,21.589811,40.400072,0.1613387695454562,0.227301412009079,12.84130859375,0.6420654296875,C,-,0,4.421777795,190.292141,2485.0
id_020064,Al-Janah,2008,18.0,15.0,0.905161,full,,1.0,611.6080322265625,623.784912109375,0.1373853654030769,0.0034147024979245,1.6132895590022285,0.9943200840012302,153,0.0,False,0.0,stage_1_fast_path,179.7942388680342,11.98628259120228,0.0261322110314669,0.3101284503936767,19.695113,41.69139,0.7134161621748012,0.7881649365966952,12.1768798828125,0.8117919921875,A,-,0,7.171022297,104.0058574,2418.9
id_020065,Al-Mahanad,2013,15.0,12.0,2.268859,full,,1.0,1178.74853515625,1188.24853515625,0.9405251426556954,0.0389110148999752,1.305311123366076,0.9997279657129742,1056,0.0,True,0.0,stage_1_fast_path,298.4373986840532,24.869783223671096,0.0007551190509414,0.0670910254120826,21.041851,41.608105,2.438373777751544,1.0747136678619271,9.5,0.7916666666666666,A,-,0,0.605747366,2293.88343,2566.3
id_020067,Amat,2007,9.0,7.0,0.5,full,,1.0,1838.4443359375,1845.6287841796875,0.0924388796023401,0.0108695390328503,1.4776800993115409,0.989325802433573,104,0.0,False,0.0,stage_2_upstream_walk,178.88005397053732,25.55429342436248,0.0085972246946512,0.2566263973712921,21.157245,40.350458,0.2544291277516332,0.5088582555032665,7.1844482421875,1.0263497488839286,B,-,0,3.14340911,21.17412577,2415.9
id_020068,Al-Makhadah,2006,11.0,9.0,0.57345,full,,1.0,1835.8065185546875,1844.3065185546875,0.2115269326865608,0.000133118258325,1.8173848610407388,0.9957176966185066,238,0.0,True,0.0,stage_3_quality_recovery,149.06111370285754,16.56234596698417,0.0908158747650836,0.3069539964199066,21.166798,40.327055,0.6388024490271665,1.1139636394230823,8.5,0.9444444444444444,A,-,0,2.330177007,63.24125673,2415.9
id_020069,Al-Dhiyah,2006,11.0,9.0,0.57755,full,,1.0,1760.139404296875,1769.639404296875,0.1892225334145152,0.0073420242421935,1.5010919880799891,0.994161022498001,213,0.0,True,0.0,stage_1_fast_path,238.44411692155927,26.49379076906214,0.0379178402715085,0.1847078949213028,21.241667,40.345833,0.630741778048384,1.0920990010360732,9.5,1.0555555555555556,A,-,0,5.05000498,65.94770311,2445.4
id_020070,Al-Laqitah,2012,11.0,8.0,0.6,full,,1.0,335.837890625,344.837890625,0.1817941587518116,0.0006855418965667,1.701561337859264,0.9961722439041788,205,0.0,True,0.0,stage_1_fast_path,268.0128032880623,33.501600411007786,0.0442321686119295,0.1981725990772247,21.479624,39.858544,0.6070151300761709,1.0116918834602848,9.0,1.125,A,-,0,3.211874072,44.57723369,2543.5
id_020071,Kalakh,1983,10.0,7.0,2.3,full,,1.0,1415.5784912109375,1425.12109375,0.7455150830540331,0.0005356346696724,1.6283864549370186,0.9908802232925704,839,0.0,False,0.0,stage_2_upstream_walk,357.7078597734744,51.10112282478206,0.0009119270468279,0.0456916987895965,21.262717,40.782789,2.1654591864155885,0.9415039940937342,9.5426025390625,1.3632289341517858,A,-,0,3.721886508,570.3078501,2524.6
id_020072,Liyah,1981,22.0,18.0,10.0,full,,1.0,1638.3631591796875,1670.785888671875,0.6202235355587852,0.4377212887011444,1.1577587495248505,0.9920885501790132,698,0.0,False,149.04465778031252,stage_4_river_retry,357.70717867275005,19.872621037375,0.0054790252402298,0.1715238243341446,21.217906,40.455117,2.4073647760926056,0.2407364776092605,32.4227294921875,1.8012627495659723,C,-,0,3.089761006,182.4589301,2420.7
id_020073,Sisad,1998,8.5,7.0,0.5,full,,1.0,1591.2059326171875,1599.4000244140625,0.1136873310669825,0.008295360284877,1.5066267807291909,0.9895407241716646,128,0.0,False,0.0,stage_5_relaxed_alignment,119.20954820555616,17.029935457936595,0.0133454193248731,0.106587067246437,21.293586,40.494242,0.3719263272210854,0.7438526544421709,8.194091796875,1.1705845424107142,B,-,0,4.469023205,6.341668969,2465.9
id_020074,Aqawam Rabigh,1999,2.0,1.5,0.5,full,,1.0,-2.371844530105591,3.128155469894409,0.4263550516978555,0.0315777079890891,1.2866556537385263,0.998977485117003,485,0.0,True,0.0,stage_3_quality_recovery,148.2466340950378,98.83108939669188,0.0024135026482915,0.0373501069843769,22.808722,39.023682,0.5507452368839308,1.1014904737678617,5.5,3.6666666666666665,D,height_noise,1,1.574573476,5069.638028,2536.6
id_020075,Al-Ghalah,2018,14.0,12.0,4.4,full,,1.0,66.86892700195312,82.86892700195312,0.9589709720273244,0.0084353938115653,1.46308209723986,0.9996689425028168,1074,0.0,True,0.0,stage_3_quality_recovery,448.2206375769176,37.35171979807647,0.0054316795644506,0.1590056717395782,20.394117,40.254865,4.704449077159186,1.069192972081633,16.0,1.3333333333333333,A,-,0,10.96835188,397.894439,
id_020076,Al-Shaqqah,2018,24.0,22.0,5.66,full,,1.0,171.2301025390625,196.2301025390625,0.8471570017186685,0.0834152779774323,1.326148758620502,0.9990065252301308,947,0.0,True,0.0,stage_3_quality_recovery,269.1841425042077,12.23564284110035,0.0928945755540944,0.4164234399795532,20.160673,40.838555,5.886712407402005,1.0400551956540645,25.0,1.1363636363636365,A,-,0,2.733403497,1487.041694,2510.6
id_020077,Buwah,2001,28.5,21.375,6.052785,full,,1.0,1559.2586669921875,1591.7586669921875,0.5527925022532335,0.0100691258767747,1.5323757017110378,0.9986592161112822,620,0.0,True,0.0,stage_3_quality_recovery,298.596853648169,13.969443445528372,0.011701569638036,0.2048796713352203,20.749444,41.028889,6.203089735969855,1.0248323269321238,32.5,1.52046783625731,A,-,0,5.010862498,443.7821155,2458.5
id_030000,Al-Nahitah,2014,6.0,4.0,0.077526,full,,1.0,998.0526733398438,1002.0526733398438,0.0588185014024741,0.0035313284085453,1.559270032371343,0.9970826182240764,68,0.0,True,0.0,stage_1_fast_path,411.7442592122997,102.93606480307491,0.0022066327143473,0.0842421576380729,25.212219,40.381161,0.0966612872312718,1.246824126503004,4.0,1.0,A,height_noise,1,4.848491022,391.9951259,
id_030001,Abu Hanak,1983,8.0,3.5,0.08,full,,1.0,978.8696899414062,982.4017944335938,0.0709676580396625,0.0118212504998812,1.4187407155779734,0.9340098124801296,82,0.0,False,0.0,stage_5_relaxed_alignment,382.4429530024781,109.26941514356518,1.5064978528563018e-05,0.033735517412424,25.132892,40.372488,0.1088314999815556,1.3603937497694454,3.5321044921875,1.0091727120535714,B,height_noise,1,3.702334597,281.93893,
id_030002,Al-Wajab,2014,7.0,4.5,0.140804,full,,1.0,974.2258911132812,977.328369140625,0.0181890481533007,0.0024183759911156,1.658127561645758,0.984025291562233,21,0.0,False,0.0,stage_2_upstream_walk,647.4701474777166,143.88225499504813,0.0120835399587522,0.0477594919502735,24.993948,40.038059,0.0298820076804226,0.2122241390899595,3.10247802734375,0.6894395616319444,C,sub_pixel;height_noise,2,0.174314995,289.1637276,2517.4
id_030003,Abu Ghasha,1984,8.0,3.7,0.16,full,,1.0,953.0383911132812,956.99541015625,0.0813428965429873,0.0637999059420614,1.2476355288444054,0.9995869249993778,94,0.0,False,0.0,stage_1_fast_path,176.50287288343858,47.7034791576861,0.0018204665776314,0.0385771319270134,25.156667,40.468056,0.0858859838499095,0.5367873990619345,3.957019042968796,1.0694646062077826,A,height_noise,1,0.685922517,1598.182983,2517.2
id_030004,Al-Jarisiyah,2008,6.0,4.0,0.2144,full,,1.0,1007.0,1013.0,0.1549713594092387,0.1578438268469012,1.1850311703453908,0.9972046877927278,177,0.0,True,0.0,stage_1_fast_path,414.2543941524787,103.56359853811968,0.0236403955665711,0.1311207562685012,23.536111,40.815278,0.2276415448949268,1.06176093700992,6.0,1.5,A,height_noise,1,1.80236833,16.66826693,2560.2
id_030005,Shalal,2008,8.0,5.5,0.318,full,,1.0,841.1392822265625,853.1392822265625,0.1709307798059867,0.0565530323046749,1.300732949070013,0.990363399023798,200,0.0,True,0.0,stage_2_upstream_walk,116.93785693469393,21.261428533580712,0.0945624213937444,0.2930613458156585,26.798218,37.858103,0.3813893024421081,1.199337429063233,12.0,2.1818181818181817,A,-,0,3.033530338,71.8851136,2458.9
id_030006,Qaran,1976,5.0,3.0,0.5,full,,1.0,914.6454467773438,920.3885498046876,0.2077917028140432,5.802531943879444e-06,2.0474415939579784,0.9873910663134924,237,0.0,False,0.0,stage_3_quality_recovery,355.3212441156945,118.4404147052315,0.0086013632760716,0.0445461831986904,23.273889,40.331111,0.4800251362476314,0.9600502724952628,5.74310302734375,1.91436767578125,B,height_noise,1,1.18051735,209.2652451,2518.1
id_030007,Al-Salahaniyah,2002,13.0,10.5,0.5,full,,1.0,960.2969970703124,967.7969970703124,0.2391563085595604,0.0464035113753258,1.3180552027537955,0.9977984703876772,272,0.0,True,0.0,stage_5_relaxed_alignment,652.3477209698152,62.12835437807764,0.0135777128969847,0.0449012592434883,22.863333,40.4595,0.5677764200453536,1.1355528400907071,7.5,0.7142857142857143,A,-,0,0.836101502,298.2271449,2535.0
id_030008,Amirah,2009,7.0,4.0,0.321215,full,,1.0,302.07061767578125,311.57061767578125,0.131946476721538,0.0071920621270948,1.506307571750274,0.9985709498623396,153,0.0,True,0.0,stage_2_upstream_walk,146.8328363045704,36.7082090761426,0.005782226438245,0.3119597733020782,25.581667,38.105278,0.3755731412564039,1.1692266589555405,9.5,2.375,A,height_noise,1,3.328818091,210.0139433,2532.4
id_030009,Nakhala,2009,8.0,6.0,0.428903,full,,1.0,794.41650390625,811.91650390625,0.1652347739287469,0.8932938555934343,1.0906056607483208,0.9985141653110698,193,0.0,True,0.0,stage_2_upstream_walk,497.41742182055776,82.90290363675963,0.021619060228644,0.2445793747901916,26.543611,38.331389,0.4451921370100954,1.0379786035772551,17.5,2.9166666666666665,A,-,0,0.927332354,723.0758973,2504.2
id_030010,Al-Shara'ih,1980,8.0,5.7,0.88,full,,1.0,618.1417846679688,628.1417846679688,0.2930562944135362,0.0096284228906114,1.4557802423187112,0.9970427658703817,337,0.0,True,0.0,stage_3_quality_recovery,412.8465047853872,72.42921136585738,0.000707620806493,0.0502713732421398,24.411667,39.636667,0.906126583913664,1.029689299901891,10.0,1.7543859649122806,A,-,0,1.274655447,113.6438394,2564.5
id_030011,Al-Farah,2009,13.0,10.0,1.0,full,,1.0,588.6814575195312,600.1814575195312,0.3731961202680906,0.0485291646731446,1.3174620639862975,0.9992075393674404,426,0.0,True,0.0,stage_3_quality_recovery,266.38285546329325,26.638285546329325,0.0424224934286808,0.2841835618019104,23.343056,39.662778,1.0746909402321132,1.0746909402321132,11.5,1.15,A,-,0,1.193864893,698.8181438,2540.7
id_030012,Al-Ghab,1978,11.0,8.9,1.0,full,,1.0,537.5454711914062,548.0454711914062,0.6476760213830393,0.4805222498887663,1.102051711187455,0.9998144175267444,746,0.0,True,0.0,stage_1_fast_path,500.9085179994661,56.28185595499619,0.0254495494727314,0.234645590186119,24.635342,39.516197,1.2174312345634946,1.2174312345634946,10.5,1.1797752808988764,A,-,0,0.712890423,43773.65447,2550.0
id_030014,Talal,2013,7.5,4.5,1.204388,full,,1.0,890.9779052734375,899.4779052734375,0.6490228215564691,0.1236762742163928,1.2164441944816324,0.9984111094445072,746,0.0,True,0.0,stage_2_upstream_walk,265.46243870278425,58.99165304506317,0.0048797607646707,0.0761893764138221,24.645833,41.961389,1.4218036811376136,1.1805196341524604,8.5,1.8888888888888888,A,height_noise,1,0.422780367,1558.738163,2541.0
id_030015,Tasha,2011,8.0,4.5,2.0,full,,1.0,267.5981750488281,279.0225524902344,0.5640484002758483,0.0034791892650334,1.516766297046103,0.994665459104624,647,0.0,False,0.0,stage_1_fast_path,472.4175557075284,104.98167904611742,0.029093783727697,0.2030861675739288,24.038056,38.898056,1.9650156015792304,0.9825078007896152,11.42437744140625,2.5387505425347223,A,height_noise,1,3.841926333,369.1734768,2551.6
id_030016,Al-Aqiq Al-A'lah,2010,19.0,16.0,2.0,full,,1.0,824.2654418945312,839.7654418945312,0.3638664230295659,0.0010097411762725,1.6691558098457355,0.9971924215806716,417,0.0,True,0.0,stage_1_fast_path,236.31590384951147,14.769743990594469,0.0081659870614996,0.098010741174221,23.924722,39.697222,2.034859708644959,1.0174298543224796,15.5,0.96875,A,-,0,1.73349059,2299.426881,2527.5
id_030017,Bidan,1998,9.0,7.0,2.2,full,,1.0,930.8751220703124,942.3751220703124,1.0856519133956255,0.0696129014006652,1.2431559382859936,0.9988717641899209,1237,0.0,True,0.0,stage_2_upstream_walk,1007.254852468639,143.89355035266271,0.0055417097941558,0.0619123242795467,23.139667,40.486167,2.2674064011783344,1.030639273262879,11.5,1.6428571428571428,A,-,0,0.731463896,940.7199404,2538.7
id_030018,Malal,2002,9.0,6.0,3.0,full,,1.0,680.4939575195312,690.4637451171875,0.6245059610187987,0.0024659529619419,1.532395966322767,0.9988243285410894,718,0.0,False,0.0,stage_3_quality_recovery,412.88975569960274,68.81495928326713,0.0059331246392169,0.1630153656005859,24.370222,39.289222,1.923747993430819,0.6412493311436064,9.96978759765625,1.6616312662760415,A,-,0,3.614507323,734.3266174,2550.2
id_030019,Al-Murabah,2008,8.0,5.0,1.318125,full,,1.0,412.1027526855469,420.6027526855469,0.5650251086344491,0.0044138233909564,1.4757073583880975,0.9993992358181132,654,0.0,True,0.0,stage_3_quality_recovery,235.14458741750863,47.02891748350173,0.0259758913275762,0.2355131953954696,25.322222,38.350278,1.3769247200094088,1.04460860692985,8.5,1.7,A,-,0,3.457941518,2311.922093,2547.8
id_030020,Rim,2009,10.0,7.0,2.9185,full,,1.0,734.1292114257812,746.1292114257812,0.8882752648487106,0.0002667112827611,1.6845699452861205,0.9964873358357176,1019,0.0,True,0.0,stage_3_quality_recovery,1151.4664788215694,164.49521126022418,0.0064178723981503,0.138573944568634,24.062398,39.571199,2.9202376224172526,1.0005953820172186,12.0,1.7142857142857142,A,-,0,4.824131938,772.6140684,2545.0
id_030021,Wasat Al-Jazl,2013,16.0,10.0,10.0,full,,1.0,672.4199829101562,695.9557495117188,1.4831912902958146,0.0020495548577075,1.5403773166764798,0.996446952421779,1732,0.0,False,0.0,stage_1_fast_path,556.0044542623789,55.60044542623789,0.0205726541320334,0.3142880499362945,26.558889,37.618056,7.177678174039806,0.7177678174039805,23.5357666015625,2.35357666015625,A,-,0,1.27565326,5710.999032,2431.6
id_030022,Al-Aqul,1978,11.0,7.0,1.0,full,,1.0,616.1314086914062,628.38720703125,0.1425081993112475,0.056275143711954,1.353303909894587,0.9970076980042932,164,0.0,False,0.0,stage_2_upstream_walk,412.6919883225712,58.95599833179589,0.0089482336441365,0.0540221408009529,24.522222,39.728056,0.557215748831326,0.557215748831326,12.25579833984375,1.7508283342633928,A,-,0,0.489827097,36261.05302,2554.5
id_030023,Am Talhah,2018,9.0,6.0,0.707141,full,,1.0,923.645263671875,932.4728393554688,0.2189350457329134,0.0046461047352282,1.51921078503727,0.9922585038228804,255,0.0,False,0.0,stage_1_fast_path,322.31479274504983,53.71913212417497,0.0046950880304869,0.238246738910675,26.154342,38.849117,0.6460730271137938,0.9136410236625988,8.82757568359375,1.4712626139322915,A,-,0,0.796347489,267.7776374,2488.4
id_030024,Al-Hanaw,2016,12.5,9.5,0.141435,full,,1.0,196.85037231445312,203.35037231445312,0.0576268233351534,0.000741654177452,1.7391802051394556,0.9961798558239616,66,0.0,True,0.0,stage_2_upstream_walk,118.19534250697116,12.441615000733808,0.0532564562345652,0.2903591990470886,23.816389,38.8025,0.1442853417596076,1.0201530155874263,6.5,0.6842105263157895,A,-,0,9.242501851,4.572856982,2565.4
id_030025,Ashar,2014,8.0,5.5,0.284355,full,,1.0,782.8255615234375,796.5157470703125,0.0222336919963402,0.0454850122476399,1.4794218662457876,0.9877883101614632,26,0.0,False,0.0,stage_2_upstream_walk,233.9424886398182,42.5349979345124,0.0151679517205895,0.3112305104732513,26.723064,37.868702,0.1310505114784288,0.4608693762319241,13.690185546875,2.489124644886364,B,sub_pixel,1,3.141679779,29.71094044,2458.9
id_030026,Khalis,2011,12.0,8.0,0.348682,full,,1.0,701.6439819335938,707.0874633789062,0.0171166092390032,0.0001857209002637,1.983614465056586,0.9559631701719428,20,0.0,False,0.0,stage_2_upstream_walk,263.29122168800643,32.911402711000804,0.0668283099245815,0.2291692942380905,26.614391,37.914449,0.0438613111749457,0.125791727634193,5.4434814453125,0.6804351806640625,C,sub_pixel,1,1.085096563,2473.968902,2458.9
id_030027,Al-Sadr,2011,11.0,8.0,0.373593,full,,1.0,724.0210571289062,727.7332763671875,0.0291031124196234,0.0002768479766972,1.8588178150107468,0.9874508660247754,34,0.0,False,0.0,stage_1_fast_path,263.313283884956,32.9141604856195,0.0692009611407366,0.3670234978199005,26.593413,37.901969,0.056708270523531,0.1517915767252892,3.71221923828125,0.4640274047851562,C,-,0,1.762723953,70.03730622,2458.9
id_030028,Ajathaliyah,2013,6.0,4.5,0.440769,full,,1.0,1003.4900512695312,1011.4900512695312,0.3305206738278103,1.7579904757190248,1.0017139050466644,0.9955104925226472,382,0.0,True,0.0,stage_2_upstream_walk,500.05359591343927,111.1230213140976,0.0033386393534698,0.0390614233911037,25.164167,40.329722,0.5803579632722612,1.316694148799623,8.0,1.7777777777777777,A,height_noise,1,0.818795359,256.7321651,2493.1
id_030029,Dhalamah,2010,8.5,6.0,1.0,full,,1.0,1043.204833984375,1051.704833984375,0.3757786272205929,0.0060552945368613,1.4812261831392932,0.9983341145510336,430,0.0,True,0.0,stage_3_quality_recovery,325.18050047982024,54.19675007997004,0.0302451803214775,0.3707230985164642,23.698611,39.567778,1.1253695981472522,1.1253695981472522,8.5,1.4166666666666667,A,-,0,8.550133319,105.3124806,2519.3
id_030030,Bathan,1966,12.0,9.0,0.5,full,,1.0,618.1417846679688,626.6417846679688,0.2330536703348003,0.047640113396723,1.3215533792961016,0.9987444286439184,268,0.0,True,0.0,stage_2_upstream_walk,707.736865346378,78.63742948293088,0.000707620806493,0.0502713732421398,24.411667,39.636667,0.605026459460587,1.210052918921174,8.5,0.9444444444444444,A,-,0,1.274706618,113.6360422,2564.5
id_030031,Al-Muqarran,2014,10.0,7.0,0.854322,full,,1.0,878.2833251953125,886.6316528320312,0.0545871162280373,7.77751869206837e-05,1.9667955527239465,0.9891210221838408,63,0.0,False,0.0,stage_1_fast_path,88.3071880491514,12.6153125784502,0.0252852255845217,0.1630889177322387,24.99,40.545556,0.1715595081452601,0.200813637182772,8.34832763671875,1.1926182338169642,C,narrow_valley,1,0.469246479,2263.350614,2541.1
id_030032,Qasibah,1982,5.0,3.0,0.3,full,,1.0,892.8516235351562,899.3516235351562,0.1299464774949706,0.0108329547788743,1.4577317361299025,0.9983496955414072,150,0.0,True,0.0,stage_1_fast_path,264.8982783018496,88.29942610061653,0.0042868773352486,0.108669213950634,25.010321,40.507014,0.3029918700257732,1.009972900085911,6.5,2.1666666666666665,A,height_noise,1,0.893363645,603.6598851,2541.1
id_030033,Ahamir,2014,12.0,9.0,0.848721,full,,1.0,990.6314697265624,1000.6314697265624,0.4315099427220908,0.0208286897160105,1.3553696087085385,0.9994755564234644,499,0.0,True,0.0,stage_5_relaxed_alignment,1293.8913431334206,143.7657047926023,0.0089636511175428,0.0814921855926513,25.250678,40.421228,0.9170667219574696,1.0805279025232906,10.0,1.1111111111111112,A,-,0,0.750705095,1057.827684,2493.1
id_030034,Al-Tar'ah,1978,12.0,10.0,2.0,full,,1.0,351.4316101074219,371.4316101074219,0.5135656736345063,0.0771501657967479,1.3036468812583448,0.998040767132808,589,0.0,True,0.0,stage_2_upstream_walk,442.926439925027,44.292643992502704,0.0160351427826891,0.2539584040641784,24.015,39.049722,2.2373676036437065,1.1186838018218532,20.0,2.0,A,-,0,4.047250352,1328.681171,2541.1
id_030035,Al-Far'ah,1983,18.5,13.5,20.0,full,,1.0,180.56040954589844,203.50027465820312,5.364371424851526,0.1552935777812927,1.2056053861313685,0.9975431700681692,6172,0.0,False,0.0,stage_1_fast_path,442.2193282918612,32.756987280878604,0.0110786410838761,0.1387476176023483,24.480833,38.493333,21.327765602977216,1.066388280148861,22.939865112304688,1.699249267578125,A,-,0,3.90967125,4399.440287,2572.6
id_030036,Hadhawadha,1999,7.0,4.5,40.0,full,,1.0,726.8329467773438,743.8329467773438,22.789745928732163,0.3734404496946248,1.0984147657738648,0.9991211993661052,26205,0.0,True,0.0,stage_1_fast_path,176.9411762924301,39.3202613983178,0.0026409562768463,0.1053071022033691,24.420556,39.980556,46.0321559580522,1.150803898951305,17.0,3.7777777777777777,D,height_noise,1,0.472644169,35545.96952,2554.4
id_030038,Al-Hasid,2001,8.0,4.5,0.4,full,,1.0,769.0806884765625,779.2168579101562,0.1604154847642755,0.6466623735211454,1.1208944065233155,0.992153051833412,186,0.0,False,0.0,stage_2_upstream_walk,146.83739670283978,32.630532600631064,0.0042194958561995,0.0487843714654445,25.551061,39.385829,0.4719751292325257,1.1799378230813142,10.13616943359375,2.2524820963541665,A,height_noise,1,0.465742793,227.8378084,2527.1
id_040000,Aba Al-Hiyas,2017,9.5,6.0,0.079473,full,,1.0,825.6984252929688,833.6890869140625,0.0207269717619134,2.0694649006134224e-05,2.213092086374576,0.9794544030170684,24,0.0,False,0.0,stage_2_upstream_walk,146.93738661527394,24.48956443587899,0.1357568077750621,0.2457579523324966,25.522692,42.815416,0.0805329215332677,1.013336875835413,7.99066162109375,1.3317769368489585,B,sub_pixel,1,0.202785352,4.195254199,
id_040001,Al-Rubiqah,2011,4.5,2.0,0.112151,full,,1.0,789.6134643554688,794.6134643554688,0.1061955411553179,0.1982865461432998,1.1700397354758512,0.9964721461929767,123,0.0,True,0.0,stage_1_fast_path,734.582527433341,367.2912637166705,0.0049637188763966,0.0343045964837074,25.445556,43.831944,0.1536813522410291,1.3703074626265404,5.0,2.5,D,height_noise,1,0.787309988,18.85989174,2505.6
id_040002,Al-Matla' Al-Aysar,2009,6.0,3.0,0.122678,full,,1.0,811.0,814.037841796875,0.0189538986102729,0.1045379379602308,1.2556728503140655,0.9348580959640986,22,0.0,False,0.0,stage_1_fast_path,234.81612836212025,78.27204278737342,0.0772368816219331,0.2529433071613312,25.821111,43.017222,0.0282154627039289,0.2299961093588824,3.037841796875,1.0126139322916667,C,sub_pixel;height_noise,2,1.775842004,20.2206789,2498.1
id_040003,Aba Al-Hadar,2012,7.0,5.0,0.141034,full,,1.0,793.3211669921875,802.9428100585938,0.0233149293406767,1.947428042992317e-05,2.216320853440909,0.959537816249354,27,0.0,False,0.0,stage_1_fast_path,176.31384646202827,35.26276929240565,0.0529985314813405,0.2421294301748275,25.549356,42.750702,0.1062124558853052,0.7530982308188465,9.62164306640625,1.92432861328125,B,sub_pixel,1,0.65101094,324.1116684,2507.7
id_040004,Aba Al-Rimah,2015,5.5,3.0,0.101814,full,,1.0,820.8384399414062,824.13720703125,0.0112296311188682,0.0007191402063659,1.8335923565128829,0.9829586323211325,13,0.0,False,0.0,stage_1_fast_path,117.56310838860864,39.187702796202885,0.1294411236342829,0.2615935206413269,25.49313,42.8098,0.0202997177918003,0.1993804171508867,3.29876708984375,1.0995890299479167,D,sub_pixel;height_noise,2,3.688782336,6.888079236,2516.2
id_040005,Al-Matla' Al-Ayman,1982,8.0,5.0,0.25,full,,1.0,809.2857055664062,814.5748901367188,0.1154230977814436,0.0004688484680841,1.7106825318048482,0.9977498049678216,134,0.0,False,0.0,stage_1_fast_path,264.1413987047063,52.82827974094126,0.033391401626401,0.227895587682724,25.848603,43.015276,0.219863773945623,0.8794550957824923,5.2891845703125,1.0578369140625,A,-,0,9.579388429,18.68335244,2498.1
id_040006,Qatan,2007,5.0,3.75,0.28035,full,,1.0,863.0352172851562,870.0352172851562,0.1989729897492564,0.1059557623368327,1.2287761483538524,0.9971004544852136,231,0.0,True,0.0,stage_1_fast_path,234.7907915031716,62.61087773417909,0.0150089192703203,0.11117585003376,25.955008,42.338155,0.352724845464591,1.258158892329556,7.0,1.8666666666666667,A,height_noise,1,3.851548616,44.65648515,2510.5
id_040008,Wadi Al-Nakhil,2011,5.0,2.0,0.107466,full,,1.0,809.6182861328125,812.6182861328125,0.107161016882146,0.000565699957648,1.6500675815436836,0.9982043488131016,124,0.0,True,0.0,stage_1_fast_path,352.7677024093013,176.38385120465065,0.0067059334830152,0.1484648734331131,25.428092,42.839694,0.1138585804372802,1.0594846782915546,3.0,1.5,D,height_noise,1,0.621477431,60.8816278,2516.2
id_040009,Abu Jurayfah,2012,5.5,2.0,0.538464,full,,1.0,835.7017822265625,842.7017822265625,0.339461308251998,0.0667016594635226,1.252496550549448,0.9979784122722348,395,0.0,True,0.0,stage_3_quality_recovery,293.1545184870371,146.57725924351854,0.0042495690341911,0.0453483425080776,26.194917,42.728295,0.5779436197454902,1.0733189586406708,7.0,3.5,D,height_noise,1,1.371427525,252.1515002,2475.1
id_040010,Al-Rubiq,2004,4.0,3.0,0.5,full,,1.0,791.0086059570312,798.5086059570312,0.3626819315808037,0.0338802371421554,1.3065738614315363,0.9914098976620104,420,0.0,True,0.0,stage_1_fast_path,646.4887854606992,215.49626182023303,0.0026395495723012,0.0358789153397083,25.420556,43.847778,0.6577927651944696,1.3155855303889392,7.5,2.5,A,height_noise,1,0.680763743,64.50903536,2505.6
id_040012,Dar'ah,2009,5.0,2.0,0.06,full,,1.0,847.4786376953125,851.9786376953125,0.0535799852283197,0.0003262515339889,1.776238389861827,0.9901823921745736,62,0.0,True,0.0,stage_1_fast_path,323.36881501814145,161.68440750907072,0.0131226566118414,0.070866659283638,25.336667,43.601667,0.0827465094453487,1.3791084907558118,4.5,2.25,D,height_noise,1,1.882894889,143.35581,
id_040013,Uqlat Al-Suqur,2007,4.5,3.375,0.712,full,,1.0,786.1738891601562,789.6738891601562,0.9157780577567468,0.003458218725727,1.4058096431421945,0.9957245849388028,1062,0.0,True,0.0,stage_1_fast_path,763.4950159632454,226.22074547059125,0.0019724484105785,0.0269351489841938,25.848561,42.106525,0.8474396292471212,1.1902241983807884,3.5,1.037037037037037,A,height_noise,1,0.262759093,29644.48623,2506.1
id_040014,Al-Fawarah,2007,5.0,3.75,1.093,full,,1.0,902.2510986328124,908.2510986328124,0.8266997164825857,0.0104171288875434,1.3616657255198474,0.999221554690773,962,0.0,True,0.0,stage_2_upstream_walk,791.4985479909175,211.06627946424467,0.0025149173490022,0.0393006317317485,26.241667,42.470833,1.1942889095443592,1.0926705485309782,6.0,1.6,A,height_noise,1,0.835095801,277.1170263,2486.7
id_040015,Al-Rummah,1977,7.0,4.0,1.5,partial,617.0585327148438,0.0787071814903846,611.0701293945312,617.5701293945312,0.9932553851666616,,,,1157,0.0,True,0.0,stage_1_fast_path,439.49611839401314,109.87402959850328,0.000647467373288,0.045919694006443,26.199722,44.021667,1.6757428797280238,1.1171619198186826,6.5,1.625,F,height_noise,1,0.414523248,84011.60091,2481.0
id_040016,Marid,1976,7.0,4.0,1.3,full,,1.0,534.1568603515625,541.1568603515625,1.2730552550348826,0.1853964333999043,1.1444907442492425,0.9998022627746768,1490,0.0,True,0.0,stage_1_fast_path,409.2215805704637,102.30539514261594,0.0009766201738784,0.0357861220836639,26.815422,44.209038,1.7893261529240287,1.3764047330184837,7.0,1.75,A,height_noise,1,0.404566432,96141.11444,2444.3
id_040017,Bada'ih Al-Hamamin,2014,4.5,3.0,0.318616,full,,1.0,827.1649169921875,837.1649169921875,0.1761947477049039,0.6146208505021802,1.0923642911674778,0.9984951634542296,203,0.0,True,0.0,stage_1_fast_path,353.5327945121879,117.84426483739595,0.0018997993877091,0.0494178794324398,24.968959,42.064096,0.3319925664883041,1.0419833482571628,10.0,3.333333333333333,D,height_noise,1,0.275943898,235.3240498,2540.2
id_050000,Al-Dhibiyah,2018,6.0,4.0,5.718024,full,,1.0,346.63922119140625,359.13922119140625,2.9062990421411383,0.0082279941347443,1.3762341195730905,0.9982099288796163,3436,0.0,True,0.0,stage_1_fast_path,901.5820688445076,225.3955172111269,0.0013104981150894,0.0411211922764778,28.094558,45.650503,6.6235451758576005,1.158362604958916,12.5,3.125,D,height_noise,1,0.343134608,3880.984441,2393.7
id_050001,Hafar Al-Batin,2013,11.5,8.5,5.503925,full,,1.0,357.1652526855469,368.1652526855469,1.824752454566184,0.000573082101869,1.5993117101561245,0.9975790595911622,2156,0.0,True,349.10723234298547,stage_4_river_retry,378.1995017049009,44.49405902410599,0.0025319640887244,0.0455324947834014,28.012222,45.507222,6.135053040369491,1.1146687210253576,11.0,1.2941176470588236,A,-,0,0.343957365,3671.986742,2404.2
id_060000,Al-Marah,2008,5.5,3.0,0.744065,full,,1.0,743.1763305664062,747.993896484375,0.1436946181634016,0.0003328567048864,1.7268820183487232,0.9950109161237868,175,0.0,False,0.0,stage_1_fast_path,143.27334266268605,47.757780887562014,0.0028214074305396,0.0287339333444833,31.6375,40.146944,0.2804097834445808,0.3768619454544708,4.81756591796875,1.6058553059895833,B,height_noise,1,0.153599201,6309.690257,2246.1
id_060001,Al-Hilali,2008,5.5,3.0,0.99125,full,,1.0,507.8804626464844,512.6058959960938,0.3219520580795924,0.0011139107915164,1.5712258385216864,0.9900048283727596,389,0.0,False,0.0,stage_3_quality_recovery,115.0735019834175,38.3578339944725,0.0016983149012859,0.0316315181553363,30.83059,41.24486,0.5350694230037444,0.5397926083266021,4.725433349609375,1.5751444498697915,A,height_noise,1,0.440864055,575.6953498,2324.9
id_060002,Al-Lawiziyah,2008,7.0,5.0,0.623246,full,,1.0,514.6414184570312,521.7359008789062,0.2336570574460014,0.0003441656906174,1.7184236316655237,0.9893699195601062,283,0.0,False,0.0,stage_2_upstream_walk,143.6660207078506,28.73320414157012,0.0132871228817464,0.0793806016445159,31.086944,41.026389,0.6365709939606611,1.021379991144205,7.094482421875,1.418896484375,B,-,0,0.615030822,82.46002077,2309.0
id_060003,Uwayj Al-Tal'ah,2013,4.0,2.0,0.251651,full,,1.0,402.606689453125,408.3731384277344,0.0592703321505662,0.0015917960443232,1.6654942345598212,0.9948527731333552,71,0.0,False,0.0,stage_1_fast_path,86.67837501443024,43.33918750721512,0.004910367271064,0.0303783752024173,29.789167,43.058611,0.1469236402605586,0.5838388890191522,5.766448974609375,2.8832244873046875,D,narrow_valley;height_noise,2,0.234210701,2138.996873,2356.9
id_060004,Turif,2008,8.0,5.0,0.725625,full,,1.0,769.3281860351562,777.8281860351562,0.3908350929932264,0.0157439525114512,1.384094496037828,0.9982849435277548,476,0.0,True,0.0,stage_1_fast_path,372.50889875969153,74.5017797519383,0.0074983273751516,0.0508627705276012,31.611389,38.521111,0.8906688384966436,1.2274505956887425,8.5,1.7,A,-,0,0.215133779,551.0170375,2238.5
id_060005,Al-Awashaqi,2008,6.0,4.0,0.7132,full,,1.0,574.6009521484375,585.030517578125,0.233989193508741,0.1288740355257672,1.257697306414879,0.9988681120259846,283,0.0,False,0.0,stage_1_fast_path,345.0530960589313,86.26327401473283,0.0055952931184053,0.0731257200241088,30.900428,40.854141,0.7160234684755115,1.003958873353213,10.4295654296875,2.607391357421875,A,height_noise,1,0.500898223,119.6528562,2303.6
id_060006,Gharabah,2014,6.5,4.0,4.1248,full,,1.0,575.3403930664062,585.9139404296875,1.3264596170848304,0.0003894263536463,1.635620319002273,0.9882278590533924,1604,0.0,False,0.0,stage_3_quality_recovery,230.05666586651893,57.51416646662975,0.0012211452776631,0.0638318583369255,30.877363,40.835401,4.511327198317968,1.0937081066519512,10.57354736328125,2.6433868408203125,B,height_noise,1,3.102006137,394.2682631,2303.6
id_060007,Aba Al-Qur,2008,8.0,5.0,3.52,full,,1.0,456.8333740234375,467.8333740234375,1.3666334957028856,0.0003154018183006,1.6459404778617626,0.9973363270378162,1650,0.0,True,0.0,stage_3_quality_recovery,345.354647213921,69.0709294427842,0.0045004241514601,0.0383363328874111,30.769641,41.47753,4.100107552789825,1.164803282042564,11.0,2.2,A,-,0,0.304766787,3213.781161,2325.8
id_060008,Badanah,2008,9.0,6.0,4.67875,full,,1.0,581.4171752929688,587.3214721679688,0.929943015901199,0.0007886038946631,1.5675990368847017,0.9962706351397308,1126,0.0,False,0.0,stage_1_fast_path,660.9777026921915,110.1629504486986,0.00094734255085,0.0502214208245277,31.03,40.850833,1.865460734606424,0.3987092139153457,5.904296875,0.9840494791666666,B,-,0,2.233341646,875.4146251,2303.6
id_060009,Ar'ar,2006,9.0,7.0,10.366,full,,1.0,607.330322265625,619.830322265625,4.196316388708059,0.0235375100640487,1.3055003174626685,0.999262350521421,5072,0.0,True,0.0,stage_1_fast_path,1697.0572826402918,242.43675466289884,0.0066142318100326,0.0445570759475231,30.811944,40.696389,10.628751491844488,1.0253474331318242,12.5,1.7857142857142858,A,-,0,0.271879301,5182.811148,2315.7
id_070000,Ayash,2004,17.0,14.0,1.0,full,,1.0,2029.4227294921875,2042.0592041015625,0.1511586480346147,0.0084621676973849,1.5403420464281683,0.9953557786406356,168,0.0,False,0.0,stage_1_fast_path,149.97948670975785,10.712820479268418,0.0192530322383717,0.2879024446010589,19.412083,42.055667,0.8387955335135097,0.8387955335135097,12.636474609375,0.9026053292410714,A,-,0,2.931806733,48.04965443,2396.4
id_070001,Ara'ir,1984,28.0,22.0,0.963,full,,1.0,2267.830078125,2284.787841796875,0.0661981821782751,0.0289617129446917,1.4870788831171533,0.9969449789848284,73,0.0,False,0.0,stage_1_fast_path,271.0217288069046,12.319169491222937,0.0653229235294616,0.2482744306325912,17.656353,43.462664,0.4184994667845748,0.4345788855499219,16.957763671875,0.7708074396306818,B,-,0,8.120575761,10.3091204,2343.7
id_070002,Al-Gharabah,2004,25.0,21.0,1.5,full,,1.0,2115.21826171875,2145.71826171875,0.1444081884909354,0.0001304887818862,1.950040916819443,0.995862856983352,160,0.0,True,0.0,stage_3_quality_recovery,150.2124477255752,7.152973701217867,0.0567247707596083,0.4155464470386505,18.790556,42.305556,1.5065835539905876,1.004389035993725,30.5,1.4523809523809523,A,-,0,2.53529368,88.28944161,2369.8
id_070003,Badwah,2007,28.0,24.0,2.0,full,,1.0,2192.119140625,2223.119140625,0.2017890309911322,0.466947079660249,1.255459519740255,0.9975828261953402,224,0.0,True,0.0,stage_3_quality_recovery,180.08436906271925,7.503515377613302,0.0086903393551573,0.2273689359426498,19.168061,42.164667,2.0793729052914327,1.0396864526457164,31.0,1.2916666666666667,A,-,0,1.916397591,71.78757092,2393.8
id_070004,Abha,1974,25.5,22.5,2.13,full,,1.0,2259.53369140625,2279.03369140625,0.2462062596365598,0.0045967023353026,1.605859265004475,0.9964941538763246,272,0.0,True,0.0,stage_5_relaxed_alignment,1534.388268260222,68.19503414489876,0.0105303385188282,0.2413389980792999,18.209935,42.488654,2.157699159590623,1.013004300277288,19.5,0.8666666666666667,A,-,0,4.877669425,56.41754635,2367.1
id_070005,Al-Fawhah,2009,24.0,20.0,3.0,full,,1.0,1748.1854248046875,1769.1854248046875,0.4400552115798025,0.0155888994018329,1.467186713353466,0.9992430871973608,490,0.0,True,0.0,stage_2_upstream_walk,209.77492976516584,10.488746488258291,0.0112772453079459,0.1800223886966705,19.748056,41.983333,3.050525591701417,1.0168418639004724,21.0,1.05,A,-,0,2.647092764,276.6705769,2482.8
id_070006,Tandahah,1983,16.0,10.0,4.2,partial,2044.0074462890625,0.973673806785509,2043.82861328125,2050.62158203125,0.6655062460586795,3.0362316151253825e-08,2.403533925401607,0.9876335118590412,736,0.0,False,0.0,stage_5_relaxed_alignment,240.5620675687018,24.05620675687018,0.0028755924878376,0.1066081896424293,18.312683,42.876847,2.949793140224086,0.7023317000533538,6.79296875,0.679296875,B,-,0,3.306666613,376.0122644,2435.1
id_070007,Atud Al-Khamis,1981,22.0,16.0,6.24,partial,2018.012939453125,0.569775390625,2012.6351318359373,2025.1351318359373,1.3425054585245546,2.894807954399904e-09,2.51357598224904,0.9465069547308512,1484,0.0,True,0.0,stage_2_upstream_walk,1082.7883648359634,67.67427280224771,0.014000615170902,0.0896395891904831,18.260411,42.715894,6.74939191353576,1.0816333194768846,12.5,0.78125,B,-,0,1.844645499,394.1347279,2367.1
id_070008,Tarjis,2012,25.0,20.0,9.7138,full,,1.0,1912.8466796875,1933.8466796875,1.7560290148756552,0.0890676054039175,1.293358343544709,0.9993088925364316,1949,0.0,True,0.0,stage_3_quality_recovery,270.1484210998539,13.507421054992696,0.0153333405162917,0.2288732379674911,19.104167,42.295,10.471302827544829,1.0779821313538294,21.0,1.05,A,-,0,3.437394963,726.4650485,2404.2
id_070009,Marbah,2008,32.0,26.0,10.0,full,,1.0,350.1285400390625,380.6285400390625,0.8006877688275974,0.0007949605935944,1.7129631799393856,0.999684918453238,883,0.0,True,0.0,stage_5_relaxed_alignment,421.579302586634,16.214588561024385,0.0789777668099768,0.2773598432540893,17.903333,42.384722,10.21670338774693,1.021670338774693,30.5,1.1730769230769231,A,-,0,1.850639807,535.9983276,2402.4
id_070010,Atud,2008,35.0,29.0,10.0,full,,1.0,443.3401184082031,472.48431396484375,0.5693966527859055,6.10815038834557e-05,1.922123962681218,0.9990064133808404,628,0.0,False,0.0,stage_1_fast_path,391.4452120208413,13.498110759339356,0.0387924191033461,0.3081854283809662,17.900556,42.471111,7.333021940396825,0.7333021940396824,29.144195556640625,1.0049722605738147,A,-,0,3.383140545,513.8640815,2402.4
id_070012,Tabalah,2014,49.25,34.25,68.41,full,,1.0,1339.0,1378.0,5.12260331807702,0.0006047637991712,1.649448813682041,0.9997922959660286,5712,0.0,True,0.0,stage_2_upstream_walk,359.362296463595,10.4923298237546,0.0315326953299828,0.2057537883520126,19.953934,42.143974,70.79115829246447,1.0348071669706838,39.0,1.1386861313868613,A,-,0,5.962918557,858.0340866,2482.8
id_070013,Shihanah,2010,15.0,12.0,0.2711,full,,1.0,2024.343017578125,2034.343017578125,0.0817923991316383,0.0100723673937959,1.5102647979684205,0.9961796624547038,91,0.0,True,0.0,stage_2_upstream_walk,179.88171842492855,14.99014320207738,0.0002828792819834,0.1904378235340118,19.588889,41.9275,0.2723417245811694,1.0045803193698613,10.0,0.8333333333333334,A,-,0,1.656840041,22.52377955,2389.9
id_070014,King Fahad,1997,68.0,60.5,325.0,partial,1261.02197265625,0.9153943743024554,1256.2840576171875,1312.2840576171875,14.303207764711685,0.0017430147991403,1.5750448550682687,0.9993144625927552,15933,0.0,True,0.0,stage_1_fast_path,539.3124556279901,8.914255464925455,0.0100706557309673,0.2465752065181732,19.6964,42.487117,326.561632773784,1.0048050239193356,56.0,0.9256198347107438,A,-,0,4.254389828,7268.054238,2569.0
id_070016,Yabah,2001,47.0,35.25,80.9133,full,,1.0,156.9512481689453,192.4512481689453,7.600274245038748,0.0088189005401585,1.4473636005110877,0.9997703343651156,8432,0.0,True,0.0,stage_2_upstream_walk,270.2040425354203,7.665362908806249,0.0029334225756386,0.2162060290575027,19.014722,41.643889,81.34307983574007,1.0053116092872254,35.5,1.0070921985815602,A,-,0,6.620195425,2341.929768,2456.3
id_070017,Shi'b Al-Harajah,2015,11.0,9.0,0.103108,full,,1.0,2214.244873046875,2218.744873046875,0.0461742284140624,3.015285621212221e-06,2.26122444549346,0.9947701923450768,51,0.0,True,0.0,stage_2_upstream_walk,120.35793469326164,13.37310385480685,0.0101760902001844,0.1303200274705886,17.973105,43.393198,0.1041183581885721,1.0097990280926037,4.5,0.5,A,-,0,0.05520951,163.0485435,2437.1
id_070018,Al-Qurihah,2009,7.5,4.5,0.026105,full,,1.0,2357.26416015625,2359.591552734375,0.0117641360017562,0.898447884754575,0.9906741460743946,0.9751310865578304,13,0.0,False,0.0,stage_1_fast_path,240.65690613440617,53.47931247431248,0.0171976821566224,0.1095634922385215,18.110833,43.142778,0.0095018021552646,0.3639839936895087,2.327392578125,0.5171983506944444,D,sub_pixel;height_noise,2,0.151088057,4.157277586,
id_070019,Al-'Aws,1985,12.0,9.0,0.035,full,,1.0,1593.947998046875,1604.947998046875,0.0063352267492778,8.478734238724312e-05,2.2734345304928856,0.9510525212074148,7,0.0,True,0.0,stage_5_relaxed_alignment,90.25126888186004,10.027918764651115,0.0193241806782796,0.5733339786529541,18.279619,42.333383,0.0357487795137821,1.0213937003937743,11.0,1.2222222222222223,D,sub_pixel,1,0.005681028,11.04631562,
id_070020,Rim,1982,11.0,8.0,0.05,full,,1.0,797.0193481445312,809.0193481445312,0.0099600446282155,0.1303705731793127,1.402645748310685,0.9805094037884728,11,0.0,True,0.0,stage_5_relaxed_alignment,120.3633567205602,15.045419590070024,0.1050516931480777,0.5576463341712952,18.235867,42.178497,0.0516111403462079,1.0322228069241584,12.0,1.5,D,sub_pixel,1,0.007652806,4.129658043,
