dam_id,dam_name,construction_year,dam_height_m,spillway_height_m,dam_length_m,capacity_mcm,curve_type,srtm_water_level_m,coverage_fraction,z_min,z_max,footprint_area_km2,c,b,r_squared,n_pixels,void_fraction,capped,placement_upstream_shift_m,placement_method,valley_width_m,valley_ratio,channel_slope,mean_catchment_slope,upstream_area_km2,lat,lon,srtm_max_vol_mcm,vol_ratio,z_range,z_range_ratio,quality,uncertainty_flags,uncertainty_score,sed_yield_t_ha_yr,owe_mm_year,predicted_silt_fraction,sediment_risk
id_010000,Al-Hariqah,1970.0,6.0,4.0,190.0,0.08,full,,1.0,666.0,674.5,0.029508426091284,0.0108871744198993,1.5319172662341047,0.9872559671548696,34,0.0,True,0.0,stage_1_fast_path,147.30027877076188,36.82506969269047,0.0026715455066723,0.101788081228733,1327.181422,24.757882,46.527667,0.0839688301274039,1.0496103765925489,8.5,2.125,B,height_noise;pre_srtm,2,3.467380732,,1.000000,fully_silted
id_010001,Tamir,2011.0,5.5,4.0,230.0,0.061523,full,,1.0,666.0,670.0,0.0792629182533493,0.1677328131138925,1.1603075885833,0.9950347949355656,92,0.0,True,0.0,stage_1_fast_path,293.5223090798273,73.38057726995683,0.0053966772420896,0.0579404346644878,10.39585528,25.710225,45.827694,0.0796936949829871,1.2953479996584552,4.0,1.0,A,height_noise,1,0.419758551,,0.081841,low
id_010002,Shi'b Al-Qasr Al-Asfal,2008.0,6.5,5.0,164.0,0.09117,full,,1.0,700.5,703.3739013671875,0.0129790030344312,0.003407370101562,1.603224512256428,0.9805823040968986,15,0.0,False,0.0,stage_1_fast_path,147.07709449146785,29.41541889829357,0.0193049196200513,0.0915092751383781,476.0297376,25.153833,46.267694,0.0140605866206339,0.1542238304336284,2.8739013671875,0.5747802734375,D,sub_pixel,1,3.028792013,,1.000000,fully_silted
id_010003,Al-Manih,1980.0,6.0,4.0,100.0,0.1,full,,1.0,714.0,715.1840209960938,0.0095205248927182,8.148088198613267e-32,8.795006741486034,0.9847153181414848,11,0.0,False,0.0,stage_2_upstream_walk,205.93593879103483,51.48398469775871,0.0111330225255349,0.0466628409922122,6.795315792,25.067531,45.450892,0.008005895932513,0.0800589593251305,1.18402099609375,0.2960052490234375,D,sub_pixel;height_noise;pre_srtm,3,2.335154861,2494.2,0.561487,severe
id_010004,Qabiban,2012.0,5.0,3.0,630.0,0.128442,full,,1.0,775.0,779.6119384765625,0.0735148997449489,8.305203526402437e-07,2.282633219146553,0.9575314014859092,84,0.0,False,0.0,stage_3_quality_recovery,207.0837789830167,69.02792632767223,0.0026749423037375,0.1053938567638397,11.00313286,23.483889,45.536389,0.119242917741063,0.928379484444832,4.6119384765625,1.5373128255208333,B,height_noise,1,4.601179458,2560.9,0.424486,high
id_010005,Al-Ashr,2013.0,6.5,5.0,173.0,0.101387,full,,1.0,736.5,738.180419921875,0.0146944749009745,0.001305647890081,1.6776012547519117,0.9568270142854606,17,0.0,False,0.0,stage_2_upstream_walk,558.6067457761106,111.72134915522211,0.0023024711114799,0.0481190718710422,4.683855356,25.240986,45.211788,0.0133979035861826,0.1321461685046666,1.680419921875,0.336083984375,D,sub_pixel,1,2.144710158,2496.7,0.099081,low
id_010006,Al-Dahinah,2009.0,11.0,9.0,70.0,0.11664,full,,1.0,747.5,758.5,0.0267241316484604,0.0015885306952737,1.783166245420051,0.984468734105954,31,0.0,True,0.0,stage_2_upstream_walk,88.08302257349061,9.787002508165624,0.0370382861351343,0.088054671883583,16.25706446,25.608753,45.290367,0.1211206611809254,1.038414447710266,11.0,1.2222222222222223,B,narrow_valley,1,2.784133981,2479.6,0.507447,severe
id_010008,Al-Ghadir,2010.0,6.0,4.0,161.0,0.119,full,,1.0,725.5,733.0,0.0778009938525473,0.4532499836263305,1.114555637496086,0.9963370633660852,90,0.0,True,0.0,stage_2_upstream_walk,88.20487166395479,22.051217915988698,0.0107356431752595,0.0551801733672618,10.72425836,25.22936,45.226406,0.1305327785748294,1.0969141056708358,7.5,1.875,A,narrow_valley;height_noise,2,2.306460919,2496.7,0.255825,high
id_010010,Al-Khalif,2012.0,7.0,5.0,152.0,0.147368,full,,1.0,729.5,733.9733276367188,0.0311071100752436,0.0010379965185144,1.7174233805325207,0.99538305185048,36,0.0,False,0.0,stage_1_fast_path,117.581385668242,23.5162771336484,0.0077079051438114,0.0494627729058265,21.90740876,25.28749,45.174242,0.0546534642294212,0.3708638525963657,4.47332763671875,0.89466552734375,B,-,0,2.411548819,2492.7,0.386072,high
id_010011,Al-Mahdiyah,2003.0,12.0,10.0,102.0,0.15,full,,1.0,751.5,759.0,0.0573155914031775,0.0009973226467487,1.728036934151059,0.9962698206570768,66,0.0,True,0.0,stage_3_quality_recovery,117.87573467432868,11.787573467432868,0.015289183102695,0.1572138667106628,31.73482847,24.662778,46.427778,0.1719467742095325,1.1463118280635507,7.5,0.75,A,-,0,2.913758025,2522.2,1.000000,fully_silted
id_010012,Al-Fawarah,2012.0,5.0,3.0,370.0,0.164,full,,1.0,825.0,832.5,0.1042834676166763,0.7379890594919681,1.0857725536370046,0.9907748848104904,119,0.0,True,0.0,stage_1_fast_path,384.8376939034082,128.27923130113606,0.0055480602291112,0.1974932998418808,14.79661195,23.280191,45.236743,0.2096623498091581,1.278428962250964,7.5,2.5,A,height_noise,1,3.051257907,2546.6,0.296471,high
id_010014,Al-Hafirah,2003.0,8.0,6.0,400.0,0.17,full,,1.0,842.0,848.0,0.0791091783688234,0.0047553222279203,1.547677116568826,0.9986920679956528,90,0.0,True,0.0,stage_1_fast_path,474.3644831938457,79.06074719897428,0.043181762519538,0.0964912101626396,16.49082014,22.824444,44.954722,0.1810721193775291,1.0651301139854654,6.0,1.0,A,-,0,9.602743891,2579.0,1.000000,fully_silted
id_010015,Malham,1970.0,5.0,4.0,100.0,0.2,full,,1.0,700.0,709.2372436523438,0.0536497281300339,0.0069485705758598,1.5827008437202748,0.99575391598309,62,0.0,False,0.0,stage_1_fast_path,176.49774798349551,44.12443699587388,0.0092465624361896,0.1328386217355728,467.9401323,25.143333,46.240556,0.2226031058298584,1.1130155291492922,9.23724365234375,2.309310913085937,A,height_noise;pre_srtm,2,2.201177196,2501.9,1.000000,fully_silted
id_010017,Halifah Al-Musa'id,1985.0,5.0,3.0,50.0,0.2,full,,1.0,729.0,736.8389282226562,0.0553675690343142,0.000294555401728,1.859683090775414,0.9984397366156016,64,0.0,False,0.0,stage_5_relaxed_alignment,88.23867856813382,29.412892856044607,0.0158823383166371,0.0338619649410247,7.838716372,25.126667,45.371556,0.1970306851182041,0.9851534255910208,7.83892822265625,2.61297607421875,A,narrow_valley;height_noise;pre_srtm,3,2.143427489,2494.2,0.264950,high
id_010018,Mahiraqah,2008.0,6.0,4.0,166.0,0.202838,full,,1.0,903.5,911.9359741210938,0.1203794510936643,0.3461687133655693,1.1395446862676055,0.9925458668248938,138,0.0,False,0.0,stage_1_fast_path,236.27981554048225,59.06995388512056,0.0099437554621681,0.0559915639460086,13.94693746,23.951111,45.075833,0.2272380218108662,1.1202931492662431,8.43597412109375,2.108993530273437,A,height_noise,1,3.337219556,2514.9,0.317719,high
id_010019,Marqan,2013.0,8.0,6.0,222.0,0.219537,full,,1.0,915.0,919.5,0.1420659575634572,0.0003226374555229,1.7352350517205313,0.9990450866606622,163,0.0,True,0.0,stage_1_fast_path,236.1789547678253,39.36315912797088,0.0069032632470789,0.1242032423615455,1676.183285,24.074167,44.937778,0.2832603448351141,1.290262437926701,4.5,0.75,A,-,0,1.252936097,2513.8,1.000000,fully_silted
id_010020,Al-Shahmah,2011.0,7.5,6.0,105.0,0.219617,full,,1.0,646.5,651.5,0.1511795101584725,0.0242850052911108,1.3472368633759957,0.9986200411193136,176,0.0,True,0.0,stage_2_upstream_walk,234.46613258710448,39.07768876451741,0.0113479581881186,0.0435534343123436,15.28567973,26.112187,45.808843,0.2329968302868504,1.0609234726221124,5.0,0.8333333333333334,A,-,0,1.100554154,2461.7,0.088385,low
id_010021,Al-Ruwaydah,2010.0,5.5,4.0,307.0,0.14857,full,,1.0,941.0,948.5,0.158996224959801,0.5978511651042917,1.0606260327790262,0.997039266375755,182,0.0,True,0.0,stage_3_quality_recovery,206.89774273953708,51.72443568488427,0.006572016570267,0.0698339864611625,121.8077617,23.737759,44.801521,0.2015844995026048,1.356831793111697,7.5,1.875,A,height_noise,1,1.288309204,2534.2,1.000000,fully_silted
id_010022,Athitiyah,1982.0,4.0,3.0,230.0,0.25,full,,1.0,704.5,707.42431640625,0.0320020852925482,0.0039997171924294,1.528222161728905,0.9871292778929174,37,0.0,False,0.0,stage_2_upstream_walk,294.09543079125257,98.03181026375086,0.0015667086457886,0.0569346621632576,16.52031192,25.158056,45.368056,0.0317858549865174,0.1271434199460698,2.92431640625,0.9747721354166666,C,height_noise;pre_srtm,2,1.849155265,2494.2,0.413581,high
id_010023,Al-Qaltah,2010.0,9.5,8.0,115.0,0.13554,full,,1.0,884.0,893.5,0.0366111472741117,1.1799444156209196e-05,2.208037738632776,0.9917044578400772,42,0.0,True,0.0,stage_1_fast_path,177.1467848362202,22.14334810452753,0.0041638963668726,0.1643318086862564,1739.598358,24.053611,45.014444,0.1442653541396547,1.0643747538708483,9.5,1.1875,A,-,0,1.353869179,2515.7,1.000000,fully_silted
id_010024,Marat,1977.0,12.0,10.0,110.0,0.4,full,,1.0,713.0,723.0,0.1739892733719842,0.0620428892631519,1.3136017494622627,0.9916314263475412,201,0.0,True,,stage_6_fallback,2500.818274157705,250.08182741577053,0.0139754250905805,0.0381810888648033,17.7253458,25.049528,45.467333,0.4533675717839638,1.1334189294599095,10.0,1.0,A,pre_srtm,1,2.20142624,2494.2,0.367698,high
id_010025,Sudus,1979.0,7.0,6.0,520.0,0.4,full,,1.0,814.5,823.0,0.2399179171537016,3.127413964077843,0.9632768815421736,0.988738842902862,277,0.0,True,0.0,stage_1_fast_path,941.7625904496116,156.96043174160192,0.0063025088141519,0.0451374426484108,52.74882731,25.005833,46.1475,0.4547180740277738,1.1367951850694344,8.5,1.4166666666666667,B,pre_srtm,1,2.067704889,2512.9,0.985816,severe
id_010026,Al-Raziwah,2013.0,6.0,4.0,473.0,0.441675,full,,1.0,884.5,894.0,0.2720347028215321,0.7583730862384838,1.0714208037365076,0.998440361599244,309,0.0,True,0.0,stage_2_upstream_walk,534.0788995267129,133.51972488167823,0.0039817948242386,0.1022723019123077,53.0483428,22.586019,44.953615,0.5139166918189948,1.1635630085900148,9.5,2.375,A,height_noise,1,1.347430167,,0.161836,moderate
id_010027,Al-Bair,2009.0,6.0,4.0,523.0,0.441906,full,,1.0,715.0,719.174072265625,0.1063204270821462,4.0269564053284445e-06,2.1335760378295867,0.987348473922177,123,0.0,False,0.0,stage_3_quality_recovery,235.20458718179933,58.80114679544983,0.0037788645368914,0.0840968042612075,16.26597998,25.269934,45.970554,0.2297126300575639,0.5198223831709999,4.174072265625,1.04351806640625,B,height_noise,1,3.49127656,2501.2,0.168051,moderate
id_010028,Haradah,2007.0,8.0,6.0,276.0,0.4478,full,,1.0,922.5,927.0,0.3016697778330828,0.0001010171789023,1.7617015175514346,0.9933501978992751,343,0.0,True,0.0,stage_3_quality_recovery,266.907852567757,44.48464209462617,0.0109294066485794,0.1041651591658592,51.39777109,22.792778,46.199167,0.4705344931215722,1.0507693012987325,4.5,0.75,A,-,0,2.361835753,2579.7,0.396205,high
id_010029,Al-Jazar,2011.0,6.0,4.0,370.0,0.040365,full,,1.0,755.0,760.0,0.0206766437531974,0.0661883577226516,1.34608631965089,0.9433211756682452,24,0.0,True,0.0,stage_1_fast_path,410.9248803829951,102.73122009574875,0.0024683509389573,0.0572301410138607,51.93675256,25.697671,45.435457,0.0426455777409696,1.056498891142565,5.0,1.25,B,sub_pixel;height_noise,2,1.29608736,,1.000000,fully_silted
id_010030,Bawdah,1985.0,8.0,6.0,100.0,0.13,full,,1.0,692.0,699.0,0.1144883989105553,0.2381357020644832,1.1581677914097148,0.99502967303122,133,0.0,True,0.0,stage_1_fast_path,146.69781444063207,24.449635740105347,0.0035729916670086,0.0872038528323173,73.428643,25.819128,45.673748,0.1753910622407944,1.34916201723688,7.0,1.1666666666666667,A,pre_srtm,1,0.879860324,2470.1,1.000000,fully_silted
id_010031,Tamrah,2009.0,6.0,4.0,160.0,0.47352,full,,1.0,640.0,647.9955444335938,0.1723136455553048,0.0072791428066685,1.4858422804653642,0.990841292251359,193,0.0,False,89.64012130256499,stage_4_river_retry,89.64012130256499,22.410030325641248,0.0196134002270378,0.1460120379924774,118.6157154,20.344295,45.373186,0.4658271739299496,0.9837539574462528,7.99554443359375,1.9988861083984373,A,narrow_valley;height_noise,2,1.117528193,2641.8,0.366073,high
id_010033,Al-Artawiyah,2012.0,10.0,8.0,128.0,0.607143,full,,1.0,632.5,640.5,0.2647011204005774,0.0177988479664623,1.394628756709872,0.9995423976442837,309,0.0,True,0.0,stage_2_upstream_walk,146.3418882359863,18.29273602949829,0.0017832322346334,0.0615946650505065,211.91319,26.455253,45.299936,0.6508306673926818,1.071956141127678,8.0,1.0,A,-,0,0.727170923,2455.5,0.273331,high
id_010034,Al-Khaniqiyah,2011.0,8.0,6.0,189.0,0.6782,full,,1.0,818.0,828.5,0.2027942035150234,0.0172739259549131,1.425568829718852,0.9928633476794028,233,0.0,True,0.0,stage_2_upstream_walk,88.50566363961381,14.750943939935636,0.0320433604392784,0.1568924486637115,307.1334788,24.273056,45.059444,0.6784467023174281,1.0003637604208613,10.5,1.75,A,narrow_valley,1,2.262358498,2519.1,1.000000,fully_silted
id_010035,Khanqat 'Arwah,2011.0,6.5,5.0,278.0,0.680143,full,,1.0,914.5,922.5,0.4204042892611822,0.1697500226472555,1.185731052032946,0.999118957881661,482,0.0,True,0.0,stage_1_fast_path,590.6633792632152,118.13267585264305,0.0033725920092963,0.0649597570300102,1082.813829,23.968821,44.909614,0.7830247939506769,1.1512649456815358,8.0,1.6,A,-,0,0.994404797,2513.0,1.000000,fully_silted
id_010036,Al-Hadar,2010.0,10.0,8.0,400.0,1.9,full,,1.0,721.0,730.0,0.5704143290998087,6.777853135141121e-06,1.9974565730483405,0.9990362863228316,645,0.0,True,0.0,stage_1_fast_path,446.0736965000689,55.75921206250862,0.0039123077044119,0.119949385523796,230.4961666,21.921389,45.934167,2.1454653680560245,1.129192298976855,9.0,1.125,A,-,0,1.112761717,2602.4,0.166146,moderate
id_010037,Al-Jufir,2011.0,5.5,4.0,578.0,0.575625,full,,1.0,796.5,803.0,0.3673019527416287,0.0461065520328284,1.276631799929617,0.999779491484644,421,0.0,True,0.0,stage_1_fast_path,620.2829810859246,155.07074527148114,0.005545701564122,0.0899601057171821,80.58577071,23.985878,46.247886,0.5838879616920073,1.01435476515441,6.5,1.625,A,height_noise,1,3.330206861,2545.1,0.537945,severe
id_010038,Al-Fahihal,2010.0,6.0,4.0,228.0,0.801985,full,,1.0,776.0,781.5210571289062,0.0972923003423751,8.22427215444757e-06,2.0961555381929893,0.9810003980096414,113,0.0,False,0.0,stage_1_fast_path,146.7134799822091,36.67836999555227,0.0038241718566545,0.0691368877887725,5.739226831,25.7775,45.265833,0.2654013414206825,0.3309305553354271,5.52105712890625,1.3802642822265625,B,height_noise,1,11.42784578,2479.6,0.100653,moderate
id_010039,Al-Rayn Bin 'Asaylan,2011.0,10.0,8.0,125.0,0.826156,full,,1.0,800.0,809.91015625,0.1179973308464321,7.797111171479786e-06,2.126333715666507,0.9921907781644912,135,0.0,False,88.69322816932235,stage_4_river_retry,147.8220469488706,18.477755868608824,0.0057344135845712,0.1810817867517471,589.4235077,23.666615,45.375946,0.5034552782781104,0.6093949305919347,9.91015625,1.23876953125,A,-,0,2.44549332,2531.1,1.000000,fully_silted
id_010040,Warat,2012.0,8.0,6.0,328.0,0.881307,full,,1.0,776.0,782.5,0.4201468203057476,0.0035579425135705,1.4926728895743997,0.9993509410286198,487,0.0,True,0.0,stage_1_fast_path,323.09388994327406,53.84898165721234,0.0089857271178888,0.1226933300495147,25.90477215,25.511667,45.519167,0.8918414281130731,1.0119531878370116,6.5,1.0833333333333333,A,-,0,4.593956443,2489.2,0.145420,moderate
id_010041,Salabawakh,2008.0,12.0,10.0,125.0,0.9312,full,,1.0,693.5,702.0,0.3428586823260839,0.0024288275553901,1.5611572831809106,0.9990462100548296,396,0.0,True,0.0,stage_1_fast_path,235.3964830117829,23.53964830117829,0.0105666175888003,0.0659941062331199,300.4313463,25.074095,46.336166,1.0497882634352949,1.1273499392561157,8.5,0.85,A,-,0,1.716825658,2497.2,0.766933,severe
id_010042,Al-'Afaj,2013.0,6.0,4.0,1309.0,0.963524,full,,1.0,705.5,714.0,0.4775951265954083,0.087451755425065,1.2429638400801737,0.9996586625416491,546,0.0,True,0.0,stage_2_upstream_walk,1271.750969899857,317.93774247496424,0.0039189972895447,0.0553090423345565,1363.101012,23.564587,45.614631,1.002424936040912,1.040373603606046,8.5,2.125,A,height_noise,1,2.429223572,2550.3,1.000000,fully_silted
id_010043,Al-'Ayinah,1968.0,5.0,3.0,400.0,0.1,full,,1.0,775.0,783.5,0.0675963841269274,6.028952929603127,0.8839420202184297,0.985423882697568,78,0.0,True,0.0,stage_1_fast_path,147.19207768419324,49.06402589473108,0.0036231197501576,0.0442527830600738,33.15303957,24.944444,46.345833,0.1130939503662055,1.1309395036620558,8.5,2.833333333333333,B,height_noise;pre_srtm,2,1.294322443,2508.8,1.000000,fully_silted
id_010044,Al-Ghat,1975.0,10.5,9.0,180.0,1.0,full,,1.0,713.5,727.5,0.319831899648365,0.1541605711383728,1.2376732098225485,0.99164342058403,372,0.0,True,0.0,stage_1_fast_path,205.2520289395211,22.805780993280123,0.0068640317196257,0.1118957474827766,45.23776964,25.967778,45.035278,1.0822268916192996,1.0822268916192996,14.0,1.5555555555555556,A,pre_srtm,1,1.359856609,2483.5,0.241335,moderate
id_010045,Hawatah Sadir,1981.0,14.0,12.0,500.0,1.0,full,,1.0,710.5,724.5,0.4224987805253031,0.8623698027709226,1.089526646699489,0.9993489562022264,490,0.0,True,0.0,stage_1_fast_path,411.0955025418318,34.257958545152654,0.0007932257634832,0.0766747593879699,224.8555908,25.590158,45.585831,1.1823499036639222,1.1823499036639222,14.0,1.1666666666666667,A,pre_srtm,1,2.163994787,2475.0,1.000000,fully_silted
id_010046,Al-Wasi'ah,1981.0,6.5,4.0,180.0,0.1,full,,1.0,714.5,720.0,0.0575960078463226,0.010479448581482,1.4699769024533302,0.9968032578121544,67,0.0,True,0.0,stage_3_quality_recovery,234.5572043699798,58.63930109249495,0.0178086842898833,0.1250962316989898,4.062248356,25.986667,45.014167,0.1053061337488735,1.0530613374887354,5.5,1.375,A,height_noise;pre_srtm,2,2.983612715,2483.5,0.419545,high
id_010049,Al-Maliyah,1982.0,8.0,6.0,300.0,0.061,full,,1.0,737.0,742.5,0.0787472972706832,0.6632925954279864,1.0457832234973632,0.9984513703431638,91,0.0,True,0.0,stage_3_quality_recovery,294.1738999737645,49.02898332896075,0.014143602344789,0.0977652817964553,349.1943032,25.126667,46.164444,0.0867518302350109,1.422161151393622,5.5,0.9166666666666666,A,pre_srtm,1,1.6809718,,1.000000,fully_silted
id_010050,Al-Ha'ir Bin Al-Majma'ah,1985.0,11.0,9.0,220.0,1.0,full,,1.0,755.5,766.5,0.3176902837385261,0.0057341540375347,1.5018464661411906,0.9980710749927773,369,0.0,True,0.0,stage_1_fast_path,264.0774347655615,29.341937196173504,0.0014450230187446,0.0700421407818794,48.56945954,25.786674,45.368297,1.0798456324635404,1.0798456324635404,11.0,1.2222222222222223,A,pre_srtm,1,1.597063933,2479.6,0.244639,moderate
id_010051,Al-Hariq Bin Al-Washam,1985.0,6.0,4.0,400.0,0.5,full,,1.0,736.0,744.0,0.2882101113788439,0.4744304506882,1.104774409017271,0.9980756550737166,334,0.0,True,0.0,stage_1_fast_path,616.879968521498,154.2199921303745,0.005511666931206,0.090728260576725,24.63013428,25.478943,45.378394,0.5108394788511247,1.0216789577022494,8.0,2.0,A,height_noise;pre_srtm,2,4.043351337,2490.1,0.628172,severe
id_010052,Namar,1959.0,8.0,6.0,400.0,1.5,full,,1.0,576.5,595.5,0.3267968574354638,0.0537933772750344,1.3547075326515985,0.9985986328007344,376,0.0,True,0.0,stage_2_upstream_walk,235.8495219632461,39.30825366054102,0.0030783040458426,0.0738973319530487,189.9458707,24.5745,46.686333,1.651367098743035,1.1009113991620232,19.0,3.1666666666666665,D,pre_srtm,1,1.494141636,2520.2,0.975128,severe
id_010053,Hanifah,1960.0,8.0,6.0,390.0,1.4,full,,1.0,598.0,617.5,0.4342850039079312,0.1949166244730057,1.2139680066041114,0.9952009923770117,500,0.0,True,0.0,stage_2_upstream_walk,265.2436062058516,44.20726770097526,0.0007336864498406,0.1370180398225784,1668.885705,24.657778,46.609167,1.4279290928492776,1.0199493520351983,19.5,3.25,D,pre_srtm,1,1.64257356,2520.2,1.000000,fully_silted
id_010054,Al-Shamam,1981.0,6.0,4.0,100.0,1.5,full,,1.0,909.0,919.4872436523438,0.1133580135733269,0.0146539486725452,1.478679176191297,0.9962216536715072,130,0.0,False,0.0,stage_3_quality_recovery,118.11754957125196,29.529387392812996,0.0246339154439871,0.2105985134840011,7.48137759,24.005556,45.010278,0.4553940199128463,0.3035960132752309,10.48724365234375,2.621810913085937,B,height_noise;pre_srtm,2,14.75571742,2514.9,0.254753,high
id_010055,Al-Nasaq,1981.0,10.0,8.0,100.0,1.5,full,,1.0,911.5,929.1840209960938,0.2145239400710546,1.972639997349024e-05,2.034089175391309,0.9938288403474972,246,0.0,False,0.0,stage_1_fast_path,147.65233971006063,18.45654246375758,0.0052828384835393,0.1815359443426132,4.041534456,23.995111,45.012222,1.5029756533026934,1.0019837688684623,17.68402099609375,2.2105026245117188,A,pre_srtm,1,15.89239692,2514.9,0.148222,moderate
id_010056,Dharmah,1982.0,6.0,4.0,1450.0,1.5,full,,1.0,659.0,666.0,0.783929117739848,0.0018633758406763,1.5125416028018046,0.9983535079205632,903,0.0,True,0.0,stage_1_fast_path,1826.7798489092563,456.6949622273141,0.0024875794985544,0.0418954454362392,4.923738495,24.679167,46.107778,1.5576576074249413,1.0384384049499609,7.0,1.75,A,height_noise;pre_srtm,2,12.40492138,2520.9,0.137818,moderate
id_010057,Al-Qawi'ah,1982.0,9.0,7.0,250.0,1.5,full,,1.0,830.0,840.0,0.659068112240773,0.1396338654895826,1.217915226210579,0.9981938835899276,756,0.0,True,0.0,stage_3_quality_recovery,324.785728268983,46.397961181283286,0.0039290106932273,0.1141405552625656,248.593398,24.040833,45.231333,1.7331050358924032,1.155403357261602,10.0,1.4285714285714286,A,pre_srtm,1,1.552249387,2515.7,0.870701,severe
id_010058,Hadijah,1984.0,7.0,5.0,350.0,1.2,full,,1.0,1031.5,1046.0,0.6841817665210504,5.257495131513955,0.9245592571951534,0.99719526694832,787,0.0,True,0.0,stage_5_relaxed_alignment,648.6658921504779,129.7331784300956,0.0085470515338039,0.1168665513396263,15.89046304,24.547867,43.248611,1.3357627500121902,1.1131356250101585,14.5,2.9,A,pre_srtm,1,10.39097838,2525.1,0.444547,high
id_010059,Al-Muzayri'ah,1985.0,4.0,3.0,580.0,0.39,full,,1.0,750.0,758.0,0.1822016257380102,0.0080874292503731,1.4769080095773772,0.9990711246634008,210,0.0,True,0.0,stage_1_fast_path,559.654599651903,186.551533217301,0.0183487327700747,0.1322004348039627,135.8937983,24.781583,46.336556,0.4726396934322908,1.2118966498263866,8.0,2.6666666666666665,A,height_noise;pre_srtm,2,3.299374024,2508.8,1.000000,fully_silted
id_010060,Lasad,1986.0,13.9,11.0,275.0,1.5,full,,1.0,639.0,654.8176879882812,0.2755812215481329,0.0039925029478561,1.5638405725393725,0.9931025134548728,315,0.0,False,0.0,stage_1_fast_path,236.6243971580579,21.51130883255072,0.0503269251654013,0.2424010187387466,58.98334035,23.626667,46.6325,1.398246626473979,0.9321644176493192,15.81768798828125,1.4379716352982954,A,pre_srtm,1,4.749514655,2536.8,0.574651,severe
id_010061,Jalajil,1975.0,12.0,10.0,360.0,1.75,full,,1.0,774.5,786.5,0.64464177122519,0.1638492096433526,1.2189023100412757,0.9996588849090016,748,0.0,True,0.0,stage_3_quality_recovery,645.8491666688807,64.58491666688806,0.0046635047164244,0.0674382001161575,79.38545211,25.651115,45.420007,1.9638735777799488,1.1222134730171136,12.0,1.2,A,pre_srtm,1,2.408384978,2479.6,0.428603,high
id_010062,Al-Khanqah,2007.0,12.0,10.0,196.0,1.9325,full,,1.0,876.0,890.0,0.5160479051213414,0.1445102193896792,1.2518901900313075,0.9983697607256188,592,0.0,True,0.0,stage_1_fast_path,206.674459447296,20.6674459447296,0.0009023106965707,0.230566993355751,1687.08652,24.049167,44.968611,2.038040544212324,1.054613476953337,14.0,1.4,A,-,0,1.282569289,2513.8,1.000000,fully_silted
id_010063,Laban,1959.0,12.0,10.0,500.0,2.0,full,,1.0,621.5,633.5,0.6750527910260732,0.0446765886040234,1.32417346568872,0.999019360707464,777,0.0,True,0.0,stage_1_fast_path,324.2283934392058,32.42283934392058,0.0335718700507629,0.1436384916305542,201.3329788,24.621139,46.605278,2.315335505900238,1.157667752950119,12.0,1.2,A,pre_srtm,1,2.283089585,2520.2,1.000000,fully_silted
id_010065,Al-Ahmar,2008.0,8.0,6.0,1045.0,2.39445,full,,1.0,733.5,745.0,1.298150553016976,0.1366282810450782,1.1991301461504769,0.9992824780107477,1472,0.0,True,0.0,stage_3_quality_recovery,742.4182430264894,123.73637383774825,0.008635896340578,0.0887680575251579,300.5854055,22.370833,46.116667,2.947295616971966,1.2308862648925498,11.5,1.9166666666666667,A,-,0,1.706909503,2583.4,0.296689,high
id_010066,Harimilah,1970.0,6.0,5.0,1250.0,1.5,full,,1.0,769.5,781.2750244140625,0.1609859333017277,0.1247404825148764,1.2703995325393505,0.9976871261340964,186,0.0,False,0.0,stage_2_upstream_walk,676.6519360516459,135.33038721032918,0.0059280011174958,0.0512567460536956,149.7677854,25.098889,46.080556,0.5294792725663007,0.3529861817108671,11.7750244140625,2.3550048828125,B,pre_srtm,1,3.064405457,2501.9,1.000000,fully_silted
id_010067,Al-Matirafi'ah,1985.0,5.0,4.0,875.0,0.14,full,,1.0,724.5,731.5,0.1154277512643257,1.3886557523005063,1.0054698287476105,0.9968254743919748,133,0.0,True,0.0,stage_1_fast_path,942.712520842066,235.67813021051649,0.0037427392319163,0.0548783242702484,142.2910102,24.746333,46.390722,0.1677173904648943,1.197981360463531,7.0,1.75,A,height_noise;pre_srtm,2,2.398013704,2522.2,1.000000,fully_silted
id_010068,Al-Rawdah,1976.0,14.0,12.0,554.0,3.0,full,,1.0,736.0,750.0,1.1509075799367758,0.0951828913912274,1.2471046004788635,0.9997185159762428,1335,0.0,True,0.0,stage_1_fast_path,557.8702387328099,46.48918656106749,0.0019995265441157,0.0763508975505828,146.9631317,25.609444,45.510278,3.454015894394526,1.151338631464842,14.0,1.1666666666666667,A,pre_srtm,1,2.532336437,2475.0,0.477128,high
id_010069,Al-Hanabij,1978.0,8.0,6.0,700.0,1.5,partial,1015.002197265625,0.99945068359375,1015.0,1019.0,0.6108825222244284,2.637682199075816e-10,2.739475948049413,0.9414569833558858,700,0.0,True,0.0,stage_1_fast_path,649.9089395079276,108.3181565846546,0.0073736157592528,0.0658595263957977,59.77164158,23.99162,43.332023,1.7580326300301583,1.172021753353439,4.0,0.6666666666666666,B,pre_srtm,1,2.655281178,2536.0,0.390672,high
id_010070,Hawtat Bani Tamim,1984.0,13.0,11.0,770.0,9.056604,full,,1.0,569.5,589.5,2.759868842936878,0.0199567553607209,1.3467203889962431,0.9982496132495874,3152,0.0,True,0.0,stage_2_upstream_walk,798.9413177573529,72.63102888703207,0.0188888302812292,0.1637980043888092,1736.611174,23.525,46.793306,9.447428568552724,1.0431535450321912,20.0,1.818181818181818,A,pre_srtm,1,4.285464393,2553.6,1.000000,fully_silted
id_010071,Al-Ha'ir,1976.0,14.0,12.0,400.0,3.8,full,,1.0,509.5,523.5,0.9015192392663124,0.0053613130010061,1.492480907311584,0.9994417474785758,1036,0.0,True,471.98435659341055,stage_4_river_retry,294.9902228708816,24.582518572573463,0.0195234546519391,0.063745267689228,2962.116143,24.419556,46.813167,4.157996433421098,1.0942095877423943,14.0,1.1666666666666667,A,pre_srtm,1,1.149761445,2529.9,1.000000,fully_silted
id_010072,Al-Hariq,1983.0,10.0,8.0,1700.0,6.0,full,,1.0,705.0,719.0,2.255214523100432,0.0655274560807635,1.2552058029198756,0.9995109326060936,2579,0.0,True,0.0,stage_1_fast_path,1833.411487884741,229.17643598559263,0.0006762601309797,0.0528789013624191,615.4349212,23.671156,46.426503,6.2490604054697405,1.04151006757829,14.0,1.75,A,pre_srtm,1,4.726971003,2546.3,1.000000,fully_silted
id_010073,Al-Halwah,2001.0,15.0,13.0,700.0,10.0,full,,1.0,627.0,645.0,1.840376766549266,3.044407929112805e-05,1.8408894407112064,0.9983404625121696,2101,0.0,True,0.0,stage_1_fast_path,1302.2459674547677,100.17276672728984,0.0356470957694611,0.1765037626028061,224.0977882,23.451103,46.690972,10.493476189850991,1.0493476189850992,18.0,1.3846153846153846,A,-,0,5.288808587,2552.4,0.227925,moderate
id_010074,Ghubaira,1970.0,6.0,4.0,170.0,0.09,full,,1.0,665.5,667.6320190429688,0.0190952141496121,4.214941294337603e-20,5.567982745382186,0.9517651407742362,22,0.0,False,0.0,stage_1_fast_path,206.22863452213255,51.557158630533145,0.0187787617415679,0.0706968083977699,1370.913011,24.748333,46.543889,0.0301617587135918,0.3351306523732428,2.13201904296875,0.5330047607421875,B,sub_pixel;height_noise;pre_srtm,3,3.528213411,,1.000000,fully_silted
id_010075,Al-Jafnah,1982.0,6.0,4.0,220.0,0.1,full,,1.0,1002.0,1005.0,0.0923891807475471,0.0011829903645536,1.5987634854657122,0.9975999969793368,106,0.0,True,0.0,stage_1_fast_path,324.7508605367658,81.18771513419145,0.0058269837376012,0.122027613222599,15.96755616,24.157675,43.449883,0.1043736263633846,1.0437362636338468,3.0,0.75,A,height_noise;pre_srtm,2,3.046439785,2541.2,1.000000,fully_silted
id_010076,Isam,1982.0,6.0,4.0,180.0,0.126,full,,1.0,1033.0,1036.8829345703125,0.056422412918879,7.30433057656776e-07,2.358754605792131,0.997785699543911,65,0.0,False,0.0,stage_2_upstream_walk,206.2372880194474,51.55932200486185,0.002539322977496,0.0317174084484577,4.425355229,24.720461,43.610381,0.1187040764101032,0.9420958445246284,3.8829345703125,0.970733642578125,A,height_noise;pre_srtm,2,1.132961897,2513.1,0.134680,moderate
id_010077,Al-Ma'idhar,2012.0,6.5,5.0,173.0,0.187701,full,,1.0,723.0,728.5,0.1135665095554865,0.0187411954795051,1.3933098072915393,0.9975621816130936,132,0.0,True,0.0,stage_1_fast_path,175.99058049856984,35.19811609971397,0.0089088796131586,0.0627118051052093,13.66946526,25.879722,45.349167,0.2103561483811852,1.1206980697022673,5.5,1.1,A,-,0,1.591552234,2475.8,0.124822,moderate
id_010078,Al-Rimah,1975.0,11.0,9.0,95.0,0.2,full,,1.0,733.5,739.5,0.1279085957399367,0.0121686569224259,1.424022362239458,0.9954759250589617,148,0.0,True,0.0,stage_5_relaxed_alignment,1293.515640354354,143.72396003937266,0.0065811521567641,0.043290089815855,14.26810469,25.262201,45.199849,0.2342110097670462,1.1710550488352314,6.0,0.6666666666666666,A,pre_srtm,1,2.030138797,2496.7,0.568184,severe
id_010079,Al-Buq,2017.0,5.0,4.0,359.0,0.221459,full,,1.0,959.5,964.050537109375,0.0624324361747245,1.863014681041493e-05,2.055343045243307,0.9815856567958068,71,0.0,False,0.0,stage_2_upstream_walk,296.5350041677966,74.13375104194915,0.0049902325721286,0.1744261980056762,4.761374446,22.766667,44.8675,0.1470679570453899,0.6640866121737654,4.550537109375,1.13763427734375,B,height_noise,1,0.230698043,,0.003434,low
id_010080,Al-Tamriyah,1982.0,6.0,4.0,360.0,0.241922,full,,1.0,626.0,631.6522827148438,0.0732599170424906,0.0009349635214978,1.696806363913888,0.9812138573517488,85,0.0,False,0.0,stage_1_fast_path,234.86253027273335,58.71563256818335,0.0033651262384987,0.0704919844865799,17.08179711,25.663353,45.906617,0.1893984325892625,0.7828904877988052,5.65228271484375,1.4130706787109375,B,height_noise;pre_srtm,2,2.044844061,2479.4,0.488684,high
id_010081,Hajilah,1982.0,6.5,5.0,150.0,0.197,full,,1.0,808.0,810.486083984375,0.0122212943869377,1.6913807296544676e-05,2.2057507758478465,0.9707266024386132,14,0.0,False,0.0,stage_1_fast_path,147.7286024325506,29.54572048651012,0.002224179028324,0.1103266701102256,22.23968603,23.851395,45.396239,0.0170225171818061,0.0864087166589146,2.486083984375,0.497216796875,D,sub_pixel;pre_srtm,2,5.483205531,2537.4,1.000000,fully_silted
id_010082,Safar,1970.0,4.0,3.0,325.0,0.3,full,,1.0,640.0,652.5,0.0946237106678079,1.315220292172777,1.0870175584012178,0.9785197876661332,109,0.0,True,88.39098899703552,stage_4_river_retry,265.17296699110653,88.3909889970355,0.0084098005917867,0.1023508682847023,59.51925615,24.726056,46.551944,0.3181613757775378,1.0605379192584594,12.5,4.166666666666667,D,height_noise;pre_srtm,2,2.911677702,2520.2,1.000000,fully_silted
id_010083,Ashirah,1977.0,5.0,3.0,300.0,0.3,full,,1.0,670.5,675.5,0.2017060921593621,0.003579353009469,1.5088546907299762,0.9994797927806696,234,0.0,True,0.0,stage_1_fast_path,264.2372789627258,88.07909298757527,0.0009830969918283,0.0483899861574173,488.0906217,25.634444,45.693889,0.3592351021684366,1.1974503405614554,5.0,1.6666666666666667,A,height_noise;pre_srtm,2,1.060855371,2475.0,1.000000,fully_silted
id_010085,Al-Sadarih,1982.0,4.0,4.0,150.0,0.3,full,,1.0,919.5,920.4427490234376,0.0078622568211864,,,,9,0.0,False,,stage_6_fallback,118.22534059652344,29.55633514913086,0.004826333853799,0.1129305586218833,10.91063281,23.741944,45.151389,0.0034943363649717,0.0116477878832392,0.9427490234375,0.235687255859375,F,sub_pixel;height_noise;pre_srtm,3,7.245674386,2533.0,0.891901,severe
id_010086,Al-Sadirah Am Nakhlah,1982.0,6.5,5.0,150.0,0.216,full,,1.0,696.0,703.5,0.0584190567481044,5.1208472940055365e-05,2.0161934040173586,0.9929679212789704,68,0.0,True,0.0,stage_2_upstream_walk,117.24188846704364,23.448377693408727,0.0024881390137367,0.0882180035114288,13.37176396,26.070556,44.966944,0.2199305665810992,1.018197067505089,7.5,1.5,A,pre_srtm,1,5.46540319,2477.0,1.000000,fully_silted
id_010087,Al-Haysiyah,2009.0,7.0,5.0,383.0,0.43646,full,,1.0,797.0,801.7113647460938,0.1239379321794623,0.0013568105478583,1.606785730538549,0.9815789308039444,143,0.0,False,0.0,stage_1_fast_path,294.3974908911091,58.87949817822182,0.0111719634610885,0.0854934230446815,129.1976835,24.917222,46.180833,0.2277251166444316,0.5217548381167385,4.71136474609375,0.94227294921875,B,-,0,3.01223954,2512.9,1.000000,fully_silted
id_010088,Sh'ib Al-Isar,2015.0,9.0,7.0,130.0,0.719462,full,,1.0,634.5,643.0,0.2714242741428889,0.00187453609493,1.5900882123095097,0.9969674122701914,304,0.0,True,0.0,stage_3_quality_recovery,119.52191478044362,17.07455925434909,0.0028062427824839,0.0946303009986877,120.2241111,20.340036,45.395295,0.8499865427106257,1.1814196478905428,8.5,1.2142857142857142,A,-,0,0.871035162,2641.8,0.123160,moderate
id_010090,Al-Barah,1982.0,6.5,5.0,750.0,0.6,full,,1.0,725.0,729.5,0.5258916545671931,0.0063553294421513,1.4090542460881,0.9993324946596098,607,0.0,True,0.0,stage_1_fast_path,794.72625003003,158.945250006006,0.0043458354025351,0.0662167966365814,79.17073319,24.94801,45.897367,0.7372879704063943,1.2288132840106571,4.5,0.9,A,pre_srtm,1,2.065483758,2508.6,0.922454,severe
id_010091,Al-Majma'ah,1969.0,8.0,6.0,360.0,1.3,full,,1.0,716.5,733.0,0.3742933580277354,0.0021918093662591,1.5729599964098986,0.9959362410074782,435,0.0,True,0.0,stage_1_fast_path,264.0000087088407,44.00000145147345,0.0120451065632718,0.0814470276236534,361.2981246,25.863889,45.282222,1.3358400881334698,1.0275692985642075,16.5,2.75,A,pre_srtm,1,1.401897418,2475.8,1.000000,fully_silted
id_010092,Al-Safrat,1977.0,13.0,11.0,490.0,0.935,full,,1.0,716.0,729.0,0.3647700723510289,0.0388540599899667,1.326547616537637,0.9987842542716115,422,0.0,True,0.0,stage_2_upstream_walk,646.8090011190848,58.80081828355316,0.0076176556586665,0.1519483178853988,74.14316739,25.275316,46.025063,0.9408820468106516,1.006290959155777,13.0,1.181818181818182,A,pre_srtm,1,3.398027037,2501.9,1.000000,fully_silted
id_010093,Samnan,1979.0,21.0,19.0,150.0,1.5,full,,1.0,667.0,682.5,0.3654373951115179,0.1874630628669401,1.241886654946227,0.9987942542514268,426,0.0,True,0.0,stage_2_upstream_walk,322.17688551453267,16.956678184975402,0.0221118924996655,0.061141051352024,55.47979833,26.267931,44.881722,1.5211546030082144,1.0141030686721428,15.5,0.8157894736842105,A,pre_srtm,1,4.487500311,2477.0,0.600071,severe
id_010094,Al-Ghil,1984.0,12.0,10.0,126.0,2.5,full,,1.0,702.5,713.00048828125,0.7645342109087373,3.2944704825442e-05,1.8466727205376887,0.9875030510778146,868,0.0,False,0.0,stage_2_upstream_walk,148.38931437638809,14.83893143763881,0.0121989837768248,0.1152905821800232,436.5609916,22.600798,46.459552,2.7141845287042323,1.0856738114816928,10.50048828125,1.050048828125,B,pre_srtm,1,2.878244838,2572.9,1.000000,fully_silted
id_010095,Al-Alab,1974.0,10.0,8.0,200.0,3.0,full,,1.0,650.5,668.0,0.7627890455506771,0.6998281545421029,1.1333624348166356,0.9991451446856688,879,0.0,True,0.0,stage_3_quality_recovery,324.0413787528741,40.50517234410927,0.0077978374988475,0.0956145599484443,1326.526895,24.774639,46.530889,3.249446622371457,1.0831488741238189,17.5,2.1875,A,pre_srtm,1,1.714094796,2520.2,1.000000,fully_silted
id_010096,Al-Mushaqar,2008.0,15.0,13.0,400.0,5.5792,full,,1.0,720.0,736.5,1.7329352209681237,0.07782516255184,1.2652207943335487,0.9996705107614412,2014,0.0,True,0.0,stage_1_fast_path,528.0000167359127,40.61538590276252,0.0120417770242549,0.0815145894885063,259.654785,25.863889,45.282222,6.117545276702142,1.0964914820587437,16.5,1.2692307692307692,A,-,0,1.502955,2475.8,0.096850,low
id_010097,Ari'ah Al-Janubi,2011.0,10.5,8.0,93.0,0.050582,full,,1.0,649.5,655.0,0.0214347760807077,0.0088687229601512,1.567307918071182,0.9838230355077442,25,0.0,True,0.0,stage_1_fast_path,117.12496186404044,14.640620233005055,0.0012421171559593,0.048511978238821,4.528318784,26.336944,44.844444,0.0525152013977338,1.0382191569675745,5.5,0.6875,B,sub_pixel,1,0.203723769,,0.021044,low
id_010098,Abaraqih,2011.0,3.5,1.5,753.0,0.133792,full,,1.0,955.0,959.0,0.2127464442519554,0.1380088289037619,1.162897298823311,0.997512865010911,244,0.0,True,590.5630048590275,stage_4_river_retry,88.58445072885412,59.056300485902746,0.0011553429532646,0.0333392620086669,892.6826648,24.183789,42.869732,0.2140543117371109,1.5999036694055768,4.0,2.6666666666666665,D,narrow_valley;height_noise,2,0.747753327,2547.0,1.000000,fully_silted
id_010099,Jawi,2011.0,6.0,3.5,338.0,0.138033,full,,1.0,2240.0,2242.54248046875,0.0189928286031652,8.68030575718402e-08,2.682346124125884,0.9551722400904296,21,0.0,False,0.0,stage_1_fast_path,120.29433301196092,34.369809431988834,0.0039753445895945,0.125201016664505,25.22655181,18.212241,43.168404,0.0289414531095851,0.2096705361006795,2.54248046875,0.7264229910714286,C,sub_pixel;height_noise,2,12.4990975,2491.7,1.000000,fully_silted
id_010100,Al-Ananiyah,1964.0,8.0,6.5,200.0,0.3,full,,1.0,783.5,790.5,0.1405849359293102,0.0003662737117757,1.7492200377970974,0.9971411291270992,163,0.0,True,0.0,stage_2_upstream_walk,704.8339799093565,108.43599690913176,0.0101262957894992,0.0608023107051849,148.2369313,25.551695,45.574323,0.3654777092027312,1.218259030675771,7.0,1.0769230769230769,A,pre_srtm,1,3.207342355,2475.0,1.000000,fully_silted
id_010102,Al-Kalbi,2011.0,7.0,3.5,541.0,0.595591,full,,1.0,723.5,729.0,0.4548952452334071,0.0022087130284255,1.5020137216553189,0.9991785540801884,529,0.0,True,0.0,stage_1_fast_path,615.8105960932646,175.9458845980756,0.0009553381767115,0.0462817624211311,169.3549304,25.946111,45.253889,0.6937367468658812,1.1647871557257936,5.5,1.5714285714285714,A,height_noise,1,0.805703062,2475.8,0.264346,high
id_010103,Khaim,2018.0,7.0,4.0,480.0,0.569546,full,,1.0,919.0,925.0055541992188,0.1310310958901565,0.0001296681093073,1.8142906416513904,0.9733978931631078,149,0.0,False,0.0,stage_3_quality_recovery,88.96420602184176,22.24105150546044,0.0009466663794538,0.1324391663074493,74.54356032,22.753504,44.918774,0.2895435457841211,0.5083760500189997,6.00555419921875,1.5013885498046875,B,narrow_valley;height_noise,2,1.02240027,,0.082347,low
id_010104,Ba'ij,2017.0,8.0,4.0,207.0,0.14003,full,,1.0,701.5,708.6159057617188,0.0421117189697191,9.273577343032032e-05,1.9870912217614072,0.99333712035185,49,0.0,False,0.0,stage_3_quality_recovery,175.8954862985455,43.97387157463638,0.0446348102381825,0.1239069104194641,5.51298621,26.020773,45.018252,0.1499692849023671,1.0709796822278594,7.11590576171875,1.7789764404296875,A,height_noise,1,0.266341581,,0.007259,low
id_010105,Ari'ah Al-Shamali,2011.0,10.5,8.0,71.0,0.03774,full,,1.0,647.0,652.5,0.0188621727977651,0.0145896874647733,1.5141841647200696,0.978121161817732,22,0.0,True,0.0,stage_2_upstream_walk,87.84271977385247,10.980339971731558,0.000863583445588,0.0490154065191745,4.465095402,26.339944,44.841094,0.0458693747582016,1.2154047365713214,5.5,0.6875,B,sub_pixel;narrow_valley,2,0.188531436,,0.025737,low
id_010106,Ruwaighib,2017.0,7.0,4.0,236.0,0.14003,full,,1.0,651.0,659.0,0.0474137749178379,0.0001131537301856,1.9432240023310396,0.986694522749304,55,0.0,True,0.0,stage_5_relaxed_alignment,176.16603207006762,44.0415080175169,0.0154040655823405,0.0846087858080864,5.320263132,25.670833,46.384722,0.1422413247535137,1.0157917928552005,8.0,2.0,B,height_noise,1,1.863393277,2484.9,0.049013,low
id_010107,Malih,2014.0,10.5,7.875,219.0,0.22604,full,,1.0,724.0,731.5,0.1236554462631426,0.1455880867929697,1.2252917967272403,0.9971505460538986,144,0.0,True,0.0,stage_3_quality_recovery,351.64676347599533,44.65355726679306,0.0007240531984014,0.0696785673499107,16.29813866,26.130556,44.946111,0.2597623089902822,1.149187351753151,7.5,0.9523809523809524,A,-,0,0.533855017,,0.035532,low
id_010108,Aba Al-Lasf,2017.0,9.0,6.75,285.0,0.70033,full,,1.0,571.0,580.1922607421875,0.2242467047359225,1.0049892702372069e-06,2.219859429910226,0.9892196665021415,256,0.0,False,0.0,stage_1_fast_path,207.17678641286085,30.69285724634976,0.0174695930653289,0.0942296311259269,34.18418357,23.471111,46.853333,0.8102664135965951,1.1569780155021134,9.1922607421875,1.36181640625,B,-,0,1.051770053,,0.035542,low
id_010110,Wadi Asimar,2017.0,12.0,9.0,174.0,0.726465,full,,1.0,648.5,658.0,0.2550346915949059,0.0017126645859414,1.6061031790799172,0.9993746207179232,286,0.0,True,0.0,stage_3_quality_recovery,179.1710603643514,19.907895596039044,0.0125875534192756,0.0809720009565353,131.8062394,20.55081,45.439544,0.8259646261880474,1.136964101764087,9.5,1.0555555555555556,A,-,0,0.90285265,,0.113406,moderate
id_010112,Al-Khadar,2017.0,8.5,6.375,135.0,0.265139,full,,1.0,841.0,843.7256469726562,0.0278678915197132,6.57055564098637e-09,2.891154209159926,0.9599361472488251,32,0.0,False,0.0,stage_1_fast_path,118.0421355273473,18.51641341605448,0.0038313662695228,0.1142237037420272,123.6827462,24.189444,45.092778,0.0513814249894713,0.1937905211586047,2.72564697265625,0.4275524662990196,C,-,0,0.159713895,2515.7,0.051580,low
id_010113,Turif,2017.0,6.0,4.5,90.0,0.08,full,,1.0,922.5,927.4834594726562,0.0184647566258714,0.0020603548041913,1.7243282129936306,0.9741985497146688,21,0.0,False,0.0,stage_1_fast_path,88.95767041336829,19.76837120297073,0.0494429725888123,0.1410896629095077,6.965892372,22.776839,44.816382,0.0441835247833351,0.5522940597916896,4.98345947265625,1.1074354383680556,B,sub_pixel;narrow_valley;height_noise,3,0.702493865,,0.042348,low
id_010114,Samanan Al-Tad'imi,2014.0,10.0,7.5,122.0,0.280037,full,,1.0,693.0,699.5,0.1681565260087993,0.108034280110863,1.232790442932658,0.9939658404538898,196,0.0,True,0.0,stage_1_fast_path,175.74382644129625,23.432510192172835,0.0046150794692192,0.0430446416139602,45.65029317,26.251389,44.890556,0.3060706155797917,1.092964913849926,6.5,0.8666666666666667,A,-,0,0.797368484,2477.0,0.119984,moderate
id_010115,Ari'ah Al-Sharqi 1,2014.0,8.5,6.375,127.0,0.064,full,,1.0,672.5,676.6530151367188,0.0162903922366154,0.0042088257443458,1.6319276409354886,0.9733828777842356,19,0.0,False,0.0,stage_1_fast_path,204.96844681356703,32.15191322565758,0.0017905518617666,0.0444316454231739,5.442113548,26.337337,44.84717,0.0342955626034008,0.5358681656781386,4.15301513671875,0.6514533547794118,D,sub_pixel,1,0.397396833,,0.031192,low
id_010116,Ari'ah Al-Sharqi 2,2014.0,7.0,5.25,291.0,0.076,full,,1.0,678.0,681.8359985351562,0.0240062350182701,0.0076050069474668,1.5362610473256433,0.9864085595569742,28,0.0,False,0.0,stage_2_upstream_walk,380.65046387202506,72.5048502613381,0.005932747523398,0.0402693673968315,5.442113548,26.340833,44.849722,0.0409392043615143,0.5386737415988726,3.83599853515625,0.7306663876488095,B,sub_pixel,1,0.397396833,,0.026267,low
id_020000,Marikh,,12.0,9.0,365.0,3.65,full,,1.0,55.5,74.43397521972656,0.7360918016627778,0.034421678033612,1.3620173274920382,0.9974749995929691,832,0.0,False,237.95471477100875,stage_4_river_retry,1041.0518771231632,115.67243079146256,0.0064157808622157,0.0882375389337539,35.39477876,21.82343333,39.24988889,3.556597407072556,0.974410248513029,18.93397521972656,2.1037750244140625,A,unknown_year,1,6.470386354,2535.6,,unknown
id_020001,Ghaya,,19.0,14.25,630.0,7.13,full,,1.0,66.0,90.5,1.2088519433835447,0.0108651947524136,1.4477131310023827,0.9961182797573912,1366,0.0,True,0.0,stage_2_upstream_walk,654.4611748814889,45.92709999168344,0.0071512965892815,0.1308966279029846,45.21934477,21.78256944,39.27240556,7.301563083361478,1.0240621435289592,24.5,1.719298245614035,A,unknown_year,1,6.477824607,2535.6,,unknown
id_020002,Am Hablayn,,10.0,7.5,795.0,4.97,full,,1.0,51.0,60.81878280639648,0.9986027598842688,3.738562620950433e-05,1.8314887613975064,0.997962158913922,1128,0.0,False,0.0,stage_3_quality_recovery,714.0901998752851,95.212026650038,0.0032685829708735,0.0801205262541771,38.42386675,21.723042,39.238089,3.7936724085053752,0.7633143679085262,9.818782806396484,1.3091710408528645,A,unknown_year,1,6.298385009,2519.6,,unknown
id_020003,Daghbaj,,14.0,10.5,630.0,5.13,full,,1.0,62.5,72.5711784362793,0.719114509653261,4.154474761359096e-05,1.846171613655536,0.9961892633429138,812,0.0,False,0.0,stage_2_upstream_walk,1785.5576262052996,170.05310725764758,0.0184165761754739,0.116126038134098,43.9948894,21.66448056,39.25558889,2.8815502903747503,0.5617057096247077,10.071178436279297,0.9591598510742188,A,unknown_year,1,9.798900896,2519.6,,unknown
id_020004,Burayman,,20.0,15.0,200.0,5.99,full,,1.0,58.5,71.5,1.8121810953095403,0.0017811147671661,1.5248146895364458,0.99898265883417,2046,0.0,True,0.0,stage_5_relaxed_alignment,446.41547614685646,29.761031743123763,0.0023337989247363,0.0865194648504257,51.16239018,21.64580833,39.25259722,6.197597345627899,1.0346573198043236,13.0,0.8666666666666667,A,unknown_year,1,5.089235947,2519.6,,unknown
id_020005,Ghulail Al-Shamali,,10.0,7.5,1200.0,1.02,full,,1.0,66.5,83.5,0.5011322171915513,0.6256373887633487,1.0961266692204783,0.9940278595285946,565,0.0,True,0.0,stage_3_quality_recovery,238.2549459979673,31.767326133062305,0.0060618318201939,0.1210530996322631,25.09002133,21.42416389,39.32467778,1.137304045121888,1.1150039658057724,17.0,2.2666666666666666,A,unknown_year,1,1.646440598,2486.4,,unknown
id_020015,Turabah,1981.0,20.0,16.0,494.0,20.0,full,,1.0,1190.5,1219.8912353515625,3.498587920208368,0.0299121723079508,1.3348330961433834,0.997209266040993,3928,0.0,False,0.0,stage_2_upstream_walk,507.3522351023949,31.70951469389968,0.0071340545926723,0.0705436393618583,4692.550298,21.013245,41.504203,17.131769183107906,0.8565884591553953,29.3912353515625,1.836952209472656,A,pre_srtm,1,3.024193349,2566.3,1.000000,fully_silted
id_020017,Al-Marwani,2009.0,61.0,53.35,580.0,183.6,full,,1.0,184.0,243.5,8.056221288735253,0.0022242082007586,1.58261051638646,0.9987889332331248,9126,0.0,True,0.0,stage_3_quality_recovery,564.5196481820525,10.581436704443345,0.0347122306908162,0.1740545183420181,2774.664904,22.17922,39.570881,186.66823523728684,1.016711520900255,59.5,1.1152764761012184,A,-,0,3.652075304,2551.8,0.072174,low
id_020018,Rabigh,2008.0,60.0,50.5,381.0,220.35,full,,1.0,111.5,168.7603530883789,11.828348775347628,0.7014343027687081,1.1880693560734226,0.9981328225431064,13456,0.0,False,0.0,stage_1_fast_path,385.4316941966903,7.632310776172084,0.0077953127114709,0.1267337799072265,3719.25756,22.821667,39.375833,175.89987920658024,0.7982749226529623,57.260353088378906,1.133868377987701,A,-,0,3.98579191,2560.7,0.093151,low
id_020019,Hali,2009.0,87.0,47.0,384.0,254.0,full,,1.0,73.0,119.9498519897461,14.619766016854149,0.0091512473635412,1.4504129619558823,0.9997828535075558,16199,0.0,False,0.0,stage_2_upstream_walk,390.54354186568025,8.30943706097192,0.015427267754588,0.1854566037654876,4897.33871,18.7675,41.575,227.68600133072889,0.8964015800422397,46.949851989746094,0.9989330210584276,A,-,0,9.660225664,2458.1,0.243567,moderate
id_020020,Al-Naqabiyah,1989.0,20.0,18.0,132.0,10.0,full,,1.0,968.0,989.5,1.5134795347932362,0.0086501550874515,1.4763200418253082,0.9945016562498474,1700,0.0,True,0.0,stage_5_relaxed_alignment,745.9398766364061,41.44110425757812,0.0008336086400941,0.0424336604773998,8135.756471,21.068958,42.575023,10.63976112959645,1.063976112959645,21.5,1.1944444444444444,A,pre_srtm,1,1.644789127,2588.9,1.000000,fully_silted
id_020021,Al-Lith,,44.5,33.375,420.0,88.0,full,,1.0,196.5,231.64352416992188,4.098907837958673,0.0012032378821322,1.59920831983318,0.9951757007760356,4593,0.0,False,0.0,stage_2_upstream_walk,358.4817905220146,10.741027431371224,0.0123655573218335,0.2755632698535919,1888.593333,20.51,40.477222,48.92675217987485,0.5559858202258506,35.143524169921875,1.0529894882373596,A,unknown_year,1,4.870778709,2461.0,,unknown
id_020023,Qanuna,2015.0,46.0,38.0,326.0,79.2,full,,1.0,211.5,248.8406982421875,5.90152066046643,0.0024295898133908,1.5500269961376938,0.9996642954939466,6557,0.0,False,0.0,stage_1_fast_path,330.0061695959564,8.684372884104116,0.0409080782467725,0.2272470146417617,1393.696797,19.255286,41.559011,76.32825394715816,0.9637405801408858,37.3406982421875,0.9826499537417764,A,-,0,7.61731661,2453.2,0.113421,moderate
id_020024,Al-Manadhah,2003.0,12.0,8.5,65.0,0.107,full,,1.0,1907.5,1911.7901611328125,0.0124828035723984,0.0025921405420989,1.7214015644271676,0.9633647091242256,14,0.0,False,0.0,stage_1_fast_path,89.58046349176257,10.53887805785442,0.0261941899781996,0.3056073188781738,4.116717789,20.7225,40.903889,0.0296466584844463,0.2770715746209937,4.2901611328125,0.5047248391544118,D,sub_pixel;narrow_valley,2,13.10076071,2403.9,0.891761,severe
id_020025,Katnah,2014.0,17.0,14.0,92.2,0.114652,full,,1.0,1740.5,1750.5,0.0249389653910927,0.0005017919314343,1.909706450811593,0.9905524901684356,28,0.0,True,0.0,stage_2_upstream_walk,149.22108894155772,10.658649210111266,0.0300761583378673,0.3319059014320373,23.37010464,20.902461,40.92971,0.1220227949492754,1.064288411447471,10.0,0.7142857142857143,A,sub_pixel,1,10.6281808,2417.0,1.000000,fully_silted
id_020026,Atam,1983.0,13.0,10.0,68.0,0.041,full,,1.0,1834.0,1840.5,0.0142303878840126,0.000749249282714,1.851948935883013,0.9631565636364274,16,0.0,True,0.0,stage_2_upstream_walk,119.2911894651596,11.92911894651596,0.0465427635210048,0.2138567119836807,4.29004701,21.072053,40.494542,0.0426911636520378,1.0412478939521417,6.5,0.65,D,sub_pixel;pre_srtm,2,0.174986462,,0.060563,low
id_020027,Damah,1984.0,10.0,8.5,71.0,0.083,full,,1.0,1805.0,1810.5,0.0312129667422057,6.436525785293955e-05,2.0307291675826438,0.9882897061906384,35,0.0,True,0.0,stage_2_upstream_walk,328.49305171198705,38.64624137788083,0.0069460479661138,0.2690401971340179,15.64798116,20.689167,40.893333,0.0840520604415112,1.012675427006159,5.5,0.6470588235294118,B,pre_srtm,1,0.250867677,,0.152803,moderate
id_020028,Ghurif Jidarah,1983.0,15.0,12.0,100.0,0.04,full,,1.0,2064.5,2070.0,0.0151388840616166,1.648798960387709e-06,2.488430132353009,0.9761464119661653,17,0.0,True,0.0,stage_2_upstream_walk,149.2081257723421,12.434010481028508,0.0380702190084517,0.2834289371967315,5.311795012,20.902058,40.74965,0.0400735166336911,1.0018379158422777,5.5,0.4583333333333333,D,sub_pixel;pre_srtm,2,0.087824667,,0.038577,low
id_020029,Dhari,2013.0,6.0,5.0,370.0,0.171859,full,,1.0,920.5,925.5,0.1128576734173602,0.0027117537368129,1.562728967686377,0.996503358683342,128,0.0,True,0.0,stage_1_fast_path,445.4016491369935,89.0803298273987,0.0010597050405656,0.038099780678749,27.59028883,22.57571,41.349388,0.2206455685366748,1.283875552264792,5.0,1.0,A,-,0,0.804435672,2574.1,0.129144,moderate
id_020030,Al-Raghiyah Riman,2011.0,8.0,5.0,113.0,0.171585,full,,1.0,966.0,969.0029907226562,0.078982233110772,9.021168094935378e-07,2.272652655841089,0.954593746655041,90,0.0,False,0.0,stage_2_upstream_walk,207.36788089522412,41.47357617904483,0.0041181121426421,0.0315793417394161,61.13569323,23.330757,41.624444,0.1399740686796459,0.8157710095850218,3.00299072265625,0.60059814453125,B,-,0,0.479292138,2569.6,0.197044,moderate
id_020031,Al-Shawahitah,1984.0,17.0,16.0,68.0,0.21,full,,1.0,1936.5,1948.0,0.0409461192496306,0.0057793670068732,1.6362225762554985,0.9931648107100312,46,0.0,True,0.0,stage_2_upstream_walk,149.17548618706456,9.323467886691535,0.0252905778146668,0.198439747095108,9.682678193,20.986314,40.832006,0.2122967269790632,1.0109367951383963,11.5,0.71875,A,pre_srtm,1,7.745243374,2481.0,1.000000,fully_silted
id_020032,Nawafilah,1987.0,15.0,12.0,138.0,0.222,full,,1.0,2084.5,2098.26708984375,0.0089114037844624,0.0272389564978138,1.6014409621695316,0.9789285018581776,10,0.0,False,0.0,stage_2_upstream_walk,149.25987224018385,12.438322686681987,0.0177677663143028,0.2680909931659698,4.290610206,20.809167,40.881944,0.0599291904505096,0.269951308335629,13.76708984375,1.1472574869791667,D,sub_pixel;pre_srtm,2,9.63176116,2417.0,0.558461,severe
id_020033,Al-Atah,1984.0,18.0,15.0,100.0,0.21,full,,1.0,2190.0,2206.5,0.0303126581541553,0.0002029603782953,2.0147502476777364,0.9894184280757256,34,0.0,True,0.0,stage_2_upstream_walk,149.2940696444321,9.952937976295477,0.0677455177993084,0.2885053753852844,7.120548157,20.73175,40.870028,0.2246702898484452,1.0698585230878344,16.5,1.1,B,pre_srtm,1,3.672893756,2417.0,0.402354,high
id_020034,Al-Marifiq,1983.0,14.0,12.0,107.0,0.25,full,,1.0,1885.0,1900.5,0.0561465698960389,0.164609111095224,1.3078113607544133,0.9943080111497756,63,0.0,True,0.0,stage_1_fast_path,119.4129236004359,9.951076966702992,0.0896143618668958,0.3364607095718384,16.34838217,20.799722,40.908333,0.2744943417139682,1.097977366855873,15.5,1.2916666666666667,A,pre_srtm,1,10.03381411,2417.0,1.000000,fully_silted
id_020035,Al-Ramah,2015.0,14.0,11.0,102.0,0.302876,full,,1.0,1802.0,1811.0,0.103526362969098,0.0025985249598504,1.6190967134669507,0.9969018145270928,116,0.0,True,0.0,stage_3_quality_recovery,179.24528241008684,16.295025673644258,0.0263081320340324,0.2172156572341919,30.48814343,20.599718,41.090631,0.3431541944967085,1.132985758187207,9.0,0.8181818181818182,A,-,0,2.095465261,2402.2,0.178483,moderate
id_020036,Al-Shu'irah,1984.0,15.0,12.0,94.0,0.171,full,,1.0,1915.0,1925.8992919921875,0.0133921592054229,0.0034501973846851,1.779512860848411,0.971110846662408,15,0.0,False,0.0,stage_1_fast_path,149.3996832070657,12.449973600588809,0.0795620807597411,0.4237589538097381,4.098645801,20.525995,41.036911,0.0716480517490127,0.4189944546725894,10.8992919921875,0.9082743326822916,D,sub_pixel;pre_srtm,2,9.219152817,2402.2,0.713906,severe
id_020037,Yasib,1983.0,9.0,8.0,86.0,0.2,full,,1.0,1810.0,1818.5,0.0612551443086361,0.0006513843876365,1.7738621388092404,0.9943622162248908,69,0.0,True,0.0,stage_2_upstream_walk,148.97614864617725,18.62201858077216,0.0128534492302063,0.1527358591556549,22.20793948,21.351155,40.330275,0.2044057532907751,1.0220287664538756,8.5,1.0625,A,pre_srtm,1,5.917270237,2445.4,1.000000,fully_silted
id_020038,Al-Bajidi,2009.0,9.0,7.0,680.0,0.499636,full,,1.0,598.5,607.466064453125,0.1587269733896739,0.3963965672585031,1.167503034822447,0.9827433973092612,179,0.0,False,0.0,stage_2_upstream_walk,476.45164941815096,68.06452134545013,0.0067655226652873,0.1885668784379959,116.8292366,21.513889,40.138889,0.4677568629220837,0.936195276005099,8.966064453125,1.2808663504464286,B,-,0,3.714302256,2515.5,1.000000,fully_silted
id_020039,Qurad,2009.0,13.0,11.0,318.0,0.37,full,,1.0,980.0,984.5,0.2936502459523237,0.0005513330348899,1.634762535318382,0.9961805586540624,333,0.0,True,0.0,stage_2_upstream_walk,564.2176511988001,51.29251374534547,0.0020427044762433,0.0634451508522033,55.29707092,22.421256,40.492924,0.492723948726309,1.3316863479089431,4.5,0.4090909090909091,A,-,0,2.647001371,,0.517321,severe
id_020040,Sa'b,1976.0,9.0,7.0,290.0,0.5,full,,1.0,1715.0,1725.0,0.1927846151634918,0.110178058344421,1.2602378614208356,0.9989991373284292,217,0.0,True,0.0,stage_3_quality_recovery,268.25561979109807,38.3222313987283,0.0223456283267746,0.1350940763950348,232.5643582,21.238794,40.383617,0.5110569118562149,1.02211382371243,10.0,1.4285714285714286,A,pre_srtm,1,3.853018263,2445.4,1.000000,fully_silted
id_020041,Misan,2009.0,16.0,14.0,121.0,0.092512,full,,1.0,2340.5,2348.91064453125,0.0169360787111057,0.0380611079153252,1.471148298536347,0.9620284025276282,19,0.0,False,0.0,stage_2_upstream_walk,238.846905107674,17.060493221976717,0.0315466522895795,0.4441885650157928,4.04355854,20.754167,40.807778,0.0648473540122603,0.7009615402570513,8.41064453125,0.6007603236607143,D,sub_pixel,1,0.087354212,,0.004993,low
id_020042,Ikrimah,1955.0,18.0,12.0,70.0,0.5,full,,1.0,1727.0,1741.0,0.1252596061579237,0.0385319045168916,1.4068074778115902,0.9958364948195234,141,0.0,True,0.0,stage_5_relaxed_alignment,1162.4133033063415,96.86777527552846,0.0165509294912706,0.1515981256961822,222.1927402,21.243556,40.358456,0.5567833912019767,1.1135667824039537,14.0,1.1666666666666667,A,pre_srtm,1,3.829213822,2445.4,1.000000,fully_silted
id_020043,Dharah,2012.0,24.0,20.0,105.0,0.50991,full,,1.0,1869.5,1886.0,0.0810752840008334,0.0038900634373504,1.661370770407995,0.994201250207569,91,0.0,True,0.0,stage_3_quality_recovery,149.2428546717016,7.46214273358508,0.0097759596519834,0.4007025063037872,86.5480665,20.8425,40.856667,0.5477036355990368,1.0741182475319897,16.5,0.825,A,-,0,4.877032542,2417.0,0.891465,severe
id_020044,Al-Ayab,2009.0,23.0,19.0,107.0,0.52711,full,,1.0,1011.0,1030.5,0.0590487488530135,0.0001394469283147,2.0079840722232847,0.9829040999753692,67,0.0,True,0.0,stage_1_fast_path,148.43555922912054,7.812397854164239,0.0240261390796595,0.2263151854276657,61.53827926,22.464327,40.04881,0.5367266873356004,1.018244175476846,19.5,1.0263157894736843,B,-,0,1.68675298,2486.8,0.257514,high
id_020045,Al-Sab'an,2014.0,21.0,17.5,161.0,0.62,full,,1.0,689.5,710.8004760742188,0.073185315589199,0.0092478445615392,1.6021061805510652,0.9932544272881508,83,0.0,False,0.0,stage_1_fast_path,207.86002194105143,11.877715539488651,0.0314592459109705,0.2332002222537994,163.7744433,22.382778,39.956944,0.6189890547423824,0.9983694431328748,21.30047607421875,1.2171700613839285,A,-,0,2.200992825,2486.8,0.536675,severe
id_020046,Thumalah,1983.0,10.0,7.75,111.0,0.608,full,,1.0,1712.0,1715.1864013671875,0.0364548975669846,7.194431410456314e-06,2.158082601078793,0.9948710078817528,41,0.0,False,0.0,stage_1_fast_path,149.09257552752126,19.237751680970486,0.0149894199191838,0.1654386073350906,26.91093679,21.119969,40.505053,0.0502366271349909,0.0826260314720246,3.1864013671875,0.4111485635080645,C,pre_srtm,1,3.92992574,2420.7,0.575353,severe
id_020047,Shawan,2010.0,19.0,16.0,95.0,1.0,full,,1.0,892.5,912.4376220703124,0.1013380897283416,0.0004915249737771,1.8447801738084888,0.995804183226802,115,0.0,False,0.0,stage_1_fast_path,178.1101571749129,11.131884823432056,0.0507162421875171,0.2266866564750671,346.4440336,22.483405,40.01693,0.8697451701032457,0.8697451701032457,19.9376220703125,1.2461013793945312,A,-,0,0.855467219,2486.8,0.364765,high
id_020048,Hajar,2012.0,11.0,9.0,455.0,0.76255,full,,1.0,642.5,652.0,0.2450728628847825,0.009222449642609,1.473497479808868,0.9943838190821916,279,0.0,True,0.0,stage_1_fast_path,503.8420749251518,55.98245276946131,0.0163386882809994,0.2333914935588836,206.210978,22.949638,39.774944,0.8048315792766378,1.055447615601125,9.5,1.0555555555555556,A,-,0,3.460681975,2516.5,1.000000,fully_silted
id_020049,Bathan,2008.0,13.0,10.0,83.0,0.7732,full,,1.0,654.0,666.0,0.1666765217165448,0.0228991806995144,1.4441470281876088,0.9850064694741428,189,0.0,True,0.0,stage_3_quality_recovery,118.78628596188008,11.878628596188008,0.104597848451204,0.2673738300800323,71.24029711,22.3575,39.935833,0.7793670691375476,1.007976033545716,12.0,1.2,B,-,0,4.228347907,2523.7,0.539428,severe
id_020050,Malkan,2007.0,12.0,9.0,165.0,0.8,full,,1.0,396.0,409.4328308105469,0.1777402128704145,0.019858166958066,1.4400574331989262,0.9996777176559792,200,0.0,False,0.0,stage_1_fast_path,268.2998065830795,29.81108962034217,0.0783088873328683,0.1802593171596527,120.9727352,21.149047,40.034856,0.723180491116499,0.9039756138956236,13.432830810546877,1.4925367567274306,A,-,0,3.020343143,2509.9,0.667520,severe
id_020051,Nu'man,2005.0,18.0,14.0,305.0,1.0,full,,1.0,854.5,865.2701416015625,0.0639516428242092,0.0009652118142342,1.7700854547474831,0.9953427462013732,72,0.0,False,0.0,stage_1_fast_path,268.2267663325856,19.159054738041824,0.0145493530973987,0.3638017177581787,73.81243921,21.254992,40.217047,0.3199802684364082,0.3199802684364082,10.7701416015625,0.7692958286830357,B,-,0,3.451701754,2445.4,0.411565,high
id_020052,Al-Qu'ur,2009.0,21.0,18.0,130.0,1.060425,full,,1.0,1132.5,1146.5,0.2020123683622303,0.0012891142543105,1.67963346490205,0.9941997716871448,229,0.0,True,0.0,stage_1_fast_path,178.206068602163,9.900337144564611,0.0402306089835358,0.1298906803131103,92.58558951,22.321667,40.062778,1.1020259876703768,1.039230485579251,14.0,0.7777777777777778,A,-,0,1.535588208,2486.8,0.175325,moderate
id_020053,Awathal,1983.0,11.0,9.0,120.0,0.213,full,,1.0,1707.5,1711.798583984375,0.0355779515150962,0.0016077849964229,1.6708185287815571,0.9864542265156296,40,0.0,False,0.0,stage_2_upstream_walk,357.88353615994487,39.76483735110499,0.010146075513114,0.1834707856178283,9.244803598,21.086467,40.665833,0.0693770054544377,0.325713640631163,4.298583984375,0.4776204427083333,B,pre_srtm,1,6.430565977,2420.7,0.923193,severe
id_020054,Basal,1987.0,15.0,12.0,120.0,1.5,full,,1.0,1516.0,1533.3125,0.0391173050997795,0.0005287284201437,1.911302918290371,0.987910706160772,44,0.0,False,0.0,stage_2_upstream_walk,149.0830021631093,12.423583513592442,0.0194356431797585,0.1708926111459732,130.4295103,21.168411,40.703213,0.3218287374118226,0.2145524916078817,17.3125,1.4427083333333333,C,pre_srtm,1,4.859378669,2481.0,1.000000,fully_silted
id_020055,Lasab,1983.0,13.0,11.0,46.0,0.21,full,,1.0,1673.0,1684.5,0.0515548423852952,0.0254269707491067,1.4825848236259669,0.9869667737360344,58,0.0,True,0.0,stage_2_upstream_walk,149.07016744220817,13.551833403837104,0.0097095404944091,0.1651447415351867,16.33720822,21.166314,40.486536,0.2326634481784662,1.1079211818022203,11.5,1.0454545454545454,B,pre_srtm,1,6.555001723,2420.7,1.000000,fully_silted
id_020056,Kara Al-Qawamah,2008.0,13.0,10.0,150.0,1.51217,full,,1.0,1294.5,1304.9735107421875,0.3739333180552049,0.0005274111529558,1.6901106243119333,0.9995699452810366,419,0.0,False,0.0,stage_1_fast_path,179.2426353159473,17.92426353159473,0.0078076720534767,0.0490792728960514,954.678449,20.733056,41.695278,1.392879298698475,0.9211129031117368,10.4735107421875,1.04735107421875,A,-,0,1.905138771,2553.8,1.000000,fully_silted
id_020057,Faydat Al-Musallah,2003.0,8.0,5.0,160.0,3.0,full,,1.0,902.0,918.0,1.8294940713619892,3.466629913005604,0.9508890860739516,0.9996993136532634,2075,0.0,True,0.0,stage_5_relaxed_alignment,326.62478575174583,65.32495715034916,0.0017499091313721,0.0534130595624446,4155.499976,22.478472,40.733306,3.1590733772000044,1.0530244590666682,16.0,3.2,D,-,0,0.472129521,2564.7,1.000000,fully_silted
id_020059,Am Al-Doum,2012.0,7.0,5.0,185.0,0.134745,full,,1.0,955.5,961.0,0.0819550671765328,0.0009835236444339,1.6746541139702054,0.9966022663669032,93,0.0,True,0.0,stage_1_fast_path,385.9133329753042,77.18266659506085,0.0066177701099441,0.0595400817692279,29.93434567,22.653246,41.33666,0.1663335368771029,1.2344319780110795,5.5,1.1,A,-,0,0.698615421,2574.1,0.167140,moderate
id_020060,Thariban,2014.0,20.5,17.5,149.0,0.701658,full,,1.0,671.0,686.0,0.1025275035995178,3.029604172919154e-07,2.4693891277510573,0.9919227978984316,114,0.0,True,0.0,stage_3_quality_recovery,149.9469961905237,8.56839978231564,0.0535146025211199,0.2365850210189819,80.2116308,19.459628,41.84271,0.744673447196498,1.0613054325561713,15.0,0.8571428571428571,A,-,0,3.203012117,2412.4,0.337993,high
id_020061,Wabah,2013.0,18.0,14.0,98.0,0.703953,full,,1.0,442.0,456.0,0.164150838529569,0.0732193220303829,1.3411904671068118,0.9979643308342476,186,0.0,True,0.0,stage_1_fast_path,118.82971951116735,8.487837107940527,0.0297699810978052,0.259878009557724,531.6654511,22.238312,39.849221,0.7426501646378082,1.0549712333604775,14.0,1.0,A,-,0,2.774494374,2531.9,1.000000,fully_silted
id_020062,Shawqab,2010.0,18.0,15.0,94.5,0.345489,full,,1.0,1867.5,1882.0,0.0562441350509145,4.362513477904284e-05,2.0810208571230806,0.9858628685954016,63,0.0,True,0.0,stage_1_fast_path,119.51662969995198,7.967775313330132,0.0090296611048428,0.2469135969877243,52.5295914,20.549722,41.117139,0.3472852148381868,1.0051990507315338,14.5,0.9666666666666668,B,-,0,3.90959392,2402.2,0.731607,severe
id_020063,Qarn,1987.0,23.0,20.0,150.0,0.709801,full,,1.0,1268.0,1281.04052734375,0.0274807794280722,0.0012098669740015,1.8328039237473543,0.9937938244130714,31,0.0,False,238.19007613171664,stage_4_river_retry,178.64255709878748,8.932127854939374,0.0295564314965022,0.2817935943603515,190.292141,21.589811,40.400072,0.1682089644024743,0.2369804556523226,13.04052734375,0.6520263671875,C,pre_srtm,1,4.421777795,2485.0,1.000000,fully_silted
id_020064,Al-Janah,2008.0,18.0,15.0,160.0,0.905161,full,,1.0,611.5,623.784912109375,0.1373853654030769,0.0037331108130732,1.6049166407264788,0.9950571361276356,153,0.0,False,0.0,stage_1_fast_path,179.7942388680342,11.98628259120228,0.0261322110314669,0.3101284503936767,104.0058574,19.695113,41.69139,0.6974776639009149,0.7705564688501989,12.284912109375,0.818994140625,A,-,0,7.171022297,2418.9,1.000000,fully_silted
id_020065,Al-Mahanad,2013.0,15.0,12.0,296.0,2.268859,full,,1.0,1178.5,1188.5,0.990401475978346,0.0293552929038718,1.326877824528797,0.9992088131097774,1112,0.0,True,0.0,stage_1_fast_path,298.4373986840532,24.869783223671096,0.0007551190509414,0.0670910328626632,2293.88343,21.041851,41.608105,2.7026738119211244,1.1912039540232005,10.0,0.8333333333333334,A,-,0,0.605747366,2566.3,0.612428,severe
id_020067,Amat,2007.0,9.0,7.0,90.0,0.5,full,,1.0,1838.5,1845.6287841796875,0.0924388796023401,0.012490891735739,1.4664900959375853,0.9847462785341992,104,0.0,False,0.0,stage_2_upstream_walk,178.88005397053732,25.554293424362477,0.0085972246946512,0.2566263973712921,21.17412577,21.157245,40.350458,0.2619842284883629,0.5239684569767259,7.1287841796875,1.0183977399553572,B,-,0,3.14340911,2415.9,0.194557,moderate
id_020068,Al-Makhadah,2006.0,11.0,9.0,150.0,0.57345,full,,1.0,1836.0,1844.0,0.1973066346908257,3.739029729522446e-05,1.922064565540581,0.9932598049473368,222,0.0,True,0.0,stage_3_quality_recovery,149.06111370285754,16.56234596698417,0.0908158747650836,0.3069539964199066,63.24125673,21.166798,40.327055,0.5814768727318591,1.0139975110852892,8.0,0.8888888888888888,A,-,0,2.330177007,2415.9,0.395349,high
id_020069,Al-Dhiyah,2006.0,11.0,9.0,250.0,0.57755,full,,1.0,1760.0,1769.5,0.1838923212056556,0.0060115725611043,1.5170691239325564,0.993040539968042,207,0.0,True,0.0,stage_1_fast_path,238.44411692155927,26.49379076906214,0.0379178402715085,0.1847078949213028,65.94770311,21.241667,40.345833,0.6078662839853617,1.0524911851534269,9.5,1.0555555555555556,A,-,0,5.05000498,2445.4,0.887133,severe
id_020070,Al-Laqitah,2012.0,11.0,8.0,206.0,0.6,full,,1.0,336.0,345.0,0.187114963398206,0.0006359118034418,1.7079675454729697,0.9980043784877336,211,0.0,True,0.0,stage_1_fast_path,268.0128032880623,33.501600411007786,0.0442321686119295,0.1981725990772247,44.57723369,21.479624,39.858544,0.6393833583417374,1.0656389305695624,9.0,1.125,A,-,0,3.211874072,2543.5,0.256983,high
id_020071,Kalakh,1983.0,10.0,7.0,164.0,2.3,full,,1.0,1415.5,1425.12109375,0.7455150830540331,0.0006956407104336,1.608531746653186,0.99397190945828,839,0.0,False,0.0,stage_2_upstream_walk,357.7078597734744,51.10112282478206,0.0009119270468279,0.0456917025148868,570.3078501,21.262717,40.782789,2.1012595859976457,0.9135911243468026,9.62109375,1.3744419642857142,A,pre_srtm,1,3.721886508,2524.6,1.000000,fully_silted
id_020072,Liyah,1981.0,22.0,18.0,120.0,10.0,full,,1.0,1638.5,1670.785888671875,0.6202235355587852,0.3524476079251417,1.17540685282582,0.9913716924562638,698,0.0,False,149.04465778031252,stage_4_river_retry,357.70717867275005,19.872621037375,0.0054790252402298,0.1715238094329834,182.4589301,21.217906,40.455117,2.489557723140152,0.2489557723140152,32.285888671875,1.7936604817708333,C,pre_srtm,1,3.089761006,2420.7,0.195146,moderate
id_020073,Sisad,1998.0,8.5,7.0,58.0,0.5,full,,1.0,1591.0,1599.4000244140625,0.1136873310669825,0.0287202209463785,1.3970856388547552,0.991762726261468,128,0.0,False,0.0,stage_5_relaxed_alignment,119.20954820555616,17.029935457936595,0.0133454193248731,0.106587067246437,6.341668969,21.293586,40.494242,0.350387907077536,0.7007758141550721,8.4000244140625,1.2000034877232142,A,pre_srtm,1,4.469023205,2465.9,0.122085,moderate
id_020074,Aqawam Rabigh,1999.0,2.0,1.5,2000.0,0.5,full,,1.0,-2.5,3.0,0.4034989045965272,0.0432683505940155,1.2605822265485755,0.9990917808953974,459,0.0,True,0.0,stage_3_quality_recovery,148.2466340950378,98.83108939669188,0.0024135026482915,0.0373501069843769,5069.638028,22.808722,39.023682,0.5004177591319676,1.0008355182639352,5.5,3.6666666666666665,D,height_noise;pre_srtm,2,1.574573476,2536.6,1.000000,fully_silted
id_020075,Al-Ghalah,2018.0,14.0,12.0,414.0,4.4,full,,1.0,67.0,83.0,0.9750431112233132,0.0088228647585777,1.4596283543521749,0.999668894413714,1092,0.0,True,0.0,stage_3_quality_recovery,448.2206375769176,37.35171979807647,0.0054316795644506,0.1590056717395782,397.894439,20.394117,40.254865,4.827668810995099,1.0971974570443406,16.0,1.3333333333333333,A,-,0,10.96835188,,0.610384,severe
id_020076,Al-Shaqqah,2018.0,24.0,22.0,271.0,5.66,full,,1.0,171.0,196.0,0.820319926690622,0.0721588811403658,1.3372022299624218,0.9991772256868452,917,0.0,True,0.0,stage_3_quality_recovery,269.1841425042077,12.23564284110035,0.0928945755540944,0.4164234399795532,1487.041694,20.160673,40.838555,5.687894409902559,1.0049283409721836,25.0,1.1363636363636365,A,-,0,2.733403497,2510.6,0.441934,high
id_020077,Buwah,,28.5,21.375,206.0,6.052785,full,,1.0,1559.5,1591.5,0.5412016917221173,0.0089148209195887,1.541994044305505,0.9988005955081742,607,0.0,True,0.0,stage_3_quality_recovery,298.596853648169,13.969443445528372,0.011701569638036,0.2048796713352203,443.7821155,20.749444,41.028889,6.058650404735942,1.000969042306301,32.0,1.4970760233918128,A,unknown_year,1,5.010862498,2458.5,,unknown
id_030000,Al-Nahitah,2014.0,6.0,4.0,230.0,0.077526,full,,1.0,998.0,1002.0,0.057953523440673,0.0047092795084499,1.5331627184186036,0.9962765034432652,67,0.0,True,0.0,stage_1_fast_path,411.7442592122997,102.93606480307491,0.0022066327143473,0.0842421576380729,391.9951259,25.212219,40.381161,0.093633864364968,1.2077737064335583,4.0,1.0,A,height_noise,1,4.848491022,,1.000000,fully_silted
id_030001,Abu Hanak,1983.0,8.0,3.5,45.0,0.08,full,,1.0,979.0,982.4017944335938,0.0709676580396625,0.0395687454562016,1.2996857923480265,0.9920661044205836,82,0.0,False,0.0,stage_5_relaxed_alignment,382.4429530024781,109.26941514356518,1.5064978528563018e-05,0.033735517412424,281.93893,25.132892,40.372488,0.0824349930277787,1.030437412847234,3.40179443359375,0.9719412667410714,A,height_noise;pre_srtm,2,3.702334597,,1.000000,fully_silted
id_030002,Al-Wajab,2014.0,7.0,4.5,101.0,0.140804,full,,1.0,974.0,977.328369140625,0.0181890481533007,0.0012618152311457,1.715316812439809,0.9994994612501232,21,0.0,False,0.0,stage_2_upstream_walk,647.4701474777166,143.88225499504813,0.0120835399587522,0.0477594956755638,289.1637276,24.993948,40.038059,0.025767818217176,0.183004873563081,3.328369140625,0.7396375868055556,C,sub_pixel;height_noise,2,0.174314995,2517.4,0.330447,high
id_030003,Abu Ghasha,1984.0,8.0,3.7,105.0,0.16,full,,1.0,953.0,956.99541015625,0.0813428965429873,0.0738486530978439,1.231904165955987,0.9986729715986492,94,0.0,False,0.0,stage_1_fast_path,176.50287288343858,47.7034791576861,0.0018204665776314,0.0385771319270134,1598.182983,25.156667,40.468056,0.0835062714510455,0.5219141965690345,3.9954101562500455,1.0798405827702826,A,height_noise;pre_srtm,2,0.685922517,2517.2,1.000000,fully_silted
id_030004,Al-Jarisiyah,2008.0,6.0,4.0,307.0,0.2144,full,,1.0,1007.0,1013.0,0.1549713594092387,0.1578438268469012,1.1850311703453908,0.9972046877927278,177,0.0,True,0.0,stage_1_fast_path,414.2543941524787,103.56359853811968,0.0236403955665711,0.1311207562685012,16.66826693,23.536111,40.815278,0.2276415448949268,1.06176093700992,6.0,1.5,A,height_noise,1,1.80236833,2560.2,0.194016,moderate
id_030005,Shalal,2008.0,8.0,5.5,162.0,0.318,full,,1.0,841.0,853.0,0.1640935486137473,0.082210638573833,1.2693443258690082,0.9897541124366936,192,0.0,True,0.0,stage_2_upstream_walk,116.93785693469393,21.261428533580712,0.0945624213937444,0.2930613458156585,71.8851136,26.798218,37.858103,0.361518599289662,1.1368509411624592,12.0,2.1818181818181817,B,-,0,3.033530338,2458.9,0.949488,severe
id_030006,Qaran,1976.0,5.0,3.0,500.0,0.5,full,,1.0,914.5,920.3885498046876,0.2077917028140432,3.302842611661924e-05,1.9021645707464625,0.9937939280942076,237,0.0,False,0.0,stage_3_quality_recovery,355.3212441156945,118.4404147052315,0.0086013632760716,0.0445461794734001,209.2652451,23.273889,40.331111,0.4491194082974414,0.8982388165948829,5.8885498046875,1.9628499348958333,A,height_noise;pre_srtm,2,1.18051735,2518.1,1.000000,fully_silted
id_030007,Al-Salahaniyah,2002.0,13.0,10.5,100.0,0.5,full,,1.0,960.5,968.0,0.2646545914574547,0.0899058261500189,1.2624908184465884,0.9964941946659966,301,0.0,True,0.0,stage_5_relaxed_alignment,652.3477209698152,62.12835437807764,0.0135777128969847,0.0449012666940689,298.2271449,22.863333,40.4595,0.6161352324379117,1.2322704648758234,7.5,0.7142857142857143,A,-,0,0.836101502,2535.0,0.920670,severe
id_030008,Amirah,2009.0,7.0,4.0,342.0,0.321215,full,,1.0,302.0,311.5,0.1293592909034686,0.0071805218777912,1.5062817356266889,0.9974124421821065,150,0.0,True,0.0,stage_2_upstream_walk,146.8328363045704,36.7082090761426,0.005782226438245,0.3119597733020782,210.0139433,25.581667,38.105278,0.3673803861658508,1.14372114056271,9.5,2.375,A,height_noise,1,3.328818091,2532.4,1.000000,fully_silted
id_030009,Nakhala,2009.0,8.0,6.0,405.0,0.428903,full,,1.0,794.5,812.0,0.1686593288288246,0.8468451397509171,1.0957138572472842,0.9984607543256604,197,0.0,True,0.0,stage_2_upstream_walk,497.41742182055776,82.90290363675963,0.021619060228644,0.2445793598890304,723.0758973,26.543611,38.331389,0.4576061485228769,1.066922237715467,17.5,2.9166666666666665,A,-,0,0.927332354,2504.2,1.000000,fully_silted
id_030010,Al-Shara'ih,1980.0,8.0,5.7,500.0,0.88,full,,1.0,618.0,628.5,0.3113179626114124,0.0054342495676224,1.5026003194541533,0.9963357185528312,358,0.0,True,0.0,stage_3_quality_recovery,412.8465047853872,72.42921136585738,0.000707620806493,0.0502713732421398,113.6438394,24.411667,39.636667,1.0183054028434744,1.1571652305039482,10.5,1.8421052631578947,A,pre_srtm,1,1.274655447,2564.5,0.582466,severe
id_030011,Al-Farah,2009.0,13.0,10.0,274.0,1.0,full,,1.0,588.5,600.0,0.354799128423889,0.0443768968921704,1.3247065345380795,0.9993847062059116,405,0.0,True,0.0,stage_3_quality_recovery,266.38285546329325,26.638285546329325,0.0424224934286808,0.284183531999588,698.8181438,23.343056,39.662778,1.008111350700717,1.008111350700717,11.5,1.15,A,-,0,1.193864893,2540.7,1.000000,fully_silted
id_030014,Talal,2013.0,7.5,4.5,480.0,1.204388,full,,1.0,891.0,899.5,0.6603328707256837,0.1420167109643526,1.2055584903846204,0.9983504634731618,759,0.0,True,0.0,stage_2_upstream_walk,265.46243870278425,58.99165304506317,0.0048797607646707,0.0761893689632415,1558.738163,24.645833,41.961389,1.441596267183739,1.1969533631883902,8.5,1.8888888888888888,A,height_noise,1,0.422780367,2541.0,0.547169,severe
id_030015,Tasha,2011.0,8.0,4.5,460.0,2.0,full,,1.0,267.5,279.0225524902344,0.5640484002758483,0.0007474981194232,1.6369781012679,0.98806816259049,647,0.0,False,0.0,stage_1_fast_path,472.4175557075284,104.98167904611742,0.029093783727697,0.2030861526727676,369.1734768,24.038056,38.898056,2.184488839244524,1.092244419622262,11.522552490234377,2.5605672200520835,B,height_noise,1,3.841926333,2551.6,0.818272,severe
id_030016,Al-Aqiq Al-A'lah,2010.0,19.0,16.0,268.0,2.0,full,,1.0,824.5,840.0,0.3725922365314739,0.0007494734928314,1.6931516782709666,0.9973778210843722,427,0.0,True,0.0,stage_1_fast_path,236.31590384951147,14.769743990594469,0.0081659870614996,0.098010741174221,2299.426881,23.924722,39.697222,2.1184093729257283,1.059204686462864,15.5,0.96875,A,-,0,1.73349059,2527.5,1.000000,fully_silted
id_030017,Bidan,1998.0,9.0,7.0,750.0,2.2,full,,1.0,931.0,942.5,1.1260237711290122,0.0497987037650261,1.268235565428983,0.9986843602864898,1283,0.0,True,0.0,stage_2_upstream_walk,1007.254852468639,143.89355035266271,0.0055417097941558,0.061912328004837,940.7199404,23.139667,40.486167,2.41441262227273,1.0974602828512408,11.5,1.6428571428571428,A,pre_srtm,1,0.731463896,2538.7,0.673667,severe
id_030018,Malal,2002.0,9.0,6.0,475.0,3.0,full,,1.0,680.5,690.4637451171875,0.6245059610187987,0.001814179457184,1.555851732240375,0.9985772287884156,718,0.0,False,0.0,stage_3_quality_recovery,412.88975569960274,68.81495928326713,0.0059331246392169,0.1630153656005859,734.3266174,24.370222,39.289222,1.939404131729341,0.6464680439097803,9.9637451171875,1.6606241861979167,A,-,0,3.614507323,2550.2,1.000000,fully_silted
id_030019,Al-Murabah,2008.0,8.0,5.0,312.0,1.318125,full,,1.0,412.0,421.0,0.6289576132811605,0.003915473877013,1.484831447353994,0.9993808711258568,728,0.0,True,0.0,stage_3_quality_recovery,235.14458741750863,47.02891748350173,0.0259758913275762,0.2355132102966308,2311.922093,25.322222,38.350278,1.6052242382917528,1.21780881046316,9.0,1.8,A,-,0,3.457941518,2547.8,1.000000,fully_silted
id_030020,Rim,2009.0,10.0,7.0,1146.0,2.9185,full,,1.0,734.0,746.5,0.9301174755579726,0.000114141395343,1.7482473021639122,0.9956674741645856,1067,0.0,True,0.0,stage_3_quality_recovery,1151.4664788215694,164.49521126022418,0.0064178723981503,0.138573944568634,772.6140684,24.062398,39.571199,3.2547573799105725,1.1152158231662062,12.5,1.7857142857142858,A,-,0,4.824131938,2545.0,1.000000,fully_silted
id_030021,Wasat Al-Jazl,2013.0,16.0,10.0,506.0,10.0,full,,1.0,672.5,695.9557495117188,1.4831912902958146,0.0047672584697299,1.4786741842547872,0.9992392468954596,1732,0.0,False,0.0,stage_1_fast_path,556.0044542623789,55.60044542623789,0.0205726541320334,0.3142880499362945,5710.999032,26.558889,37.618056,6.563678084465846,0.6563678084465846,23.45574951171875,2.345574951171875,A,-,0,1.27565326,2431.6,0.728525,severe
id_030022,Al-Aqul,1978.0,11.0,7.0,450.0,1.0,full,,1.0,616.0,628.38720703125,0.1425081993112475,0.0586225539979584,1.3484507021842405,0.9987239182023374,164,0.0,False,0.0,stage_2_upstream_walk,412.6919883225712,58.95599833179589,0.0089482336441365,0.0540221445262432,36261.05302,24.522222,39.728056,0.5361436522868276,0.5361436522868276,12.38720703125,1.7696010044642858,A,pre_srtm,1,0.489827097,2554.5,1.000000,fully_silted
id_030023,Am Talhah,2018.0,9.0,6.0,373.0,0.707141,full,,1.0,923.5,932.4728393554688,0.2189350457329134,0.0077254884895176,1.475084157149526,0.995137892292983,255,0.0,False,0.0,stage_1_fast_path,322.31479274504983,53.71913212417497,0.0046950880304869,0.238246738910675,267.7776374,26.154342,38.849117,0.6132327702538567,0.8672001344199484,8.97283935546875,1.4954732259114585,A,-,0,0.796347489,2488.4,0.185574,moderate
id_030024,Al-Hanaw,2016.0,12.5,9.5,93.0,0.141435,full,,1.0,197.0,203.5,0.0584999570220496,0.0002869743206955,1.8281353511360567,0.9956773782212892,67,0.0,True,0.0,stage_2_upstream_walk,118.19534250697116,12.441615000733808,0.0532564562345652,0.2903591990470886,4.572856982,23.816389,38.8025,0.155417796267535,1.098863762629724,6.5,0.6842105263157895,A,-,0,9.242501851,2565.4,0.229867,moderate
id_030025,Ashar,2014.0,8.0,5.5,335.0,0.284355,full,,1.0,783.0,796.5157470703125,0.0222336919963402,0.0469197897208972,1.4753960109852071,0.9816252596428192,26,0.0,False,0.0,stage_2_upstream_walk,233.9424886398182,42.5349979345124,0.0151679517205895,0.3112305104732513,29.71094044,26.723064,37.868702,0.1340435084779361,0.4713949411050838,13.5157470703125,2.457408558238636,B,sub_pixel,1,3.141679779,2458.9,0.303009,high
id_030026,Khalis,2011.0,12.0,8.0,279.0,0.348682,full,,1.0,701.5,707.0874633789062,0.0171166092390032,3.5039779795077924e-05,2.159570032147857,0.9853070819690252,20,0.0,False,0.0,stage_2_upstream_walk,263.29122168800643,32.911402711000804,0.0668283099245815,0.2291692942380905,2473.968902,26.614391,37.914449,0.0496381667931092,0.1423594185908916,5.58746337890625,0.6984329223632812,C,sub_pixel,1,1.085096563,2458.9,1.000000,fully_silted
id_030027,Al-Sadr,2011.0,11.0,8.0,282.0,0.373593,full,,1.0,724.0,727.7332763671875,0.0291031124196234,0.0002303717239226,1.8763866545358705,0.987522324387511,34,0.0,False,0.0,stage_1_fast_path,263.313283884956,32.9141604856195,0.0692009611407366,0.3670234978199005,70.03730622,26.593413,37.901969,0.0564942770498572,0.1512187783225523,3.7332763671875,0.4666595458984375,C,-,0,1.762723953,2458.9,0.381297,high
id_030028,Ajathaliyah,2013.0,6.0,4.5,285.0,0.440769,full,,1.0,1003.5,1011.0,0.2500535987859612,1.2570270511763018,1.0300102082623694,0.9928268291212332,289,0.0,True,0.0,stage_2_upstream_walk,500.05359591343927,111.1230213140976,0.0033386393534698,0.0390614233911037,256.7321651,25.164167,40.329722,0.4425689127301702,1.0040835737771263,7.5,1.6666666666666667,A,height_noise,1,0.818795359,2493.1,0.476919,high
id_030029,Dhalamah,2010.0,8.5,6.0,297.0,1.0,full,,1.0,1043.0,1051.5,0.3635439742413178,0.0091317957217075,1.4475541560244969,0.998068165260944,416,0.0,True,0.0,stage_3_quality_recovery,325.18050047982024,54.19675007997004,0.0302451803214775,0.3707231283187866,105.3124806,23.698611,39.567778,1.053491011894011,1.053491011894011,8.5,1.4166666666666667,A,-,0,8.550133319,2519.3,1.000000,fully_silted
id_030030,Bathan,1966.0,12.0,9.0,266.0,0.5,full,,1.0,618.0,626.5,0.2243576378596212,0.0530384356730094,1.3119475721527665,0.9980888004447234,258,0.0,True,0.0,stage_2_upstream_walk,707.736865346378,78.63742948293088,0.000707620806493,0.0502713732421398,113.6360422,24.411667,39.636667,0.5721989368667859,1.1443978737335718,8.5,0.9444444444444444,A,pre_srtm,1,1.274706618,2564.5,1.000000,fully_silted
id_030031,Al-Muqarran,2014.0,10.0,7.0,144.0,0.854322,full,,1.0,878.5,886.6316528320312,0.0545871162280373,1.2063221000919956e-05,2.1428751182442847,0.9864710583332542,63,0.0,False,0.0,stage_1_fast_path,88.3071880491514,12.6153125784502,0.0252852255845217,0.1630889177322387,2263.350614,24.99,40.545556,0.1845564405805071,0.2160267915148002,8.13165283203125,1.1616646902901786,C,narrow_valley,1,0.469246479,2541.1,1.000000,fully_silted
id_030032,Qasibah,1982.0,5.0,3.0,680.0,0.3,full,,1.0,893.0,899.5,0.1403421956945683,0.020007379864089,1.402582889080437,0.99808903598498,162,0.0,True,0.0,stage_1_fast_path,264.8982783018496,88.29942610061653,0.0042868773352486,0.108669213950634,603.6598851,25.010321,40.507014,0.3257325035873931,1.085775011957977,6.5,2.1666666666666665,A,height_noise;pre_srtm,2,0.893363645,2541.1,1.000000,fully_silted
id_030033,Ahamir,2014.0,12.0,9.0,438.0,0.848721,full,,1.0,990.5,1000.5,0.4124854562694135,0.0182959880729558,1.365357920222001,0.999467493904006,477,0.0,True,0.0,stage_5_relaxed_alignment,1293.8913431334206,143.7657047926023,0.0089636511175428,0.0814921855926513,1057.827684,25.250678,40.421228,0.8589123258691719,1.0120078634429597,10.0,1.1111111111111112,A,-,0,0.750705095,2493.1,0.863689,severe
id_030034,Al-Tar'ah,1978.0,12.0,10.0,450.0,2.0,full,,1.0,351.5,371.0,0.4830481887835594,0.1081896435376727,1.2767540555041763,0.9984860433926492,554,0.0,True,0.0,stage_2_upstream_walk,442.926439925027,44.292643992502704,0.0160351427826891,0.2539584040641784,1328.681171,24.015,39.049722,2.023963191721728,1.011981595860864,19.5,1.95,A,pre_srtm,1,4.047250352,2541.1,1.000000,fully_silted
id_030035,Al-Far'ah,1983.0,18.5,13.5,600.0,20.0,full,,1.0,180.5,203.5,5.364371424851526,0.178015112809606,1.1963415782860063,0.998010194318774,6172,0.0,True,0.0,stage_1_fast_path,442.2193282918612,32.756987280878604,0.0110786410838761,0.1387476176023483,4399.440287,24.480833,38.493333,21.01204818235549,1.0506024091177744,23.0,1.7037037037037035,A,pre_srtm,1,3.90967125,2572.6,1.000000,fully_silted
id_030036,Hadhawadha,1999.0,7.0,4.5,595.0,40.0,full,,1.0,727.0,744.0,24.55778841959698,0.3173909021900555,1.1083502370514469,0.9992497555438388,28238,0.0,True,0.0,stage_1_fast_path,176.9411762924301,39.3202613983178,0.0026409562768463,0.1053071022033691,35545.96952,24.420556,39.980556,50.117873430793416,1.2529468357698357,17.0,3.7777777777777777,D,height_noise;pre_srtm,2,0.472644169,2554.4,0.872339,severe
id_030038,Al-Hasid,,8.0,4.5,91.0,0.4,full,,1.0,769.0,779.2168579101562,0.1604154847642755,0.7650985094385154,1.1054876120568282,0.9932131727415155,186,0.0,False,0.0,stage_2_upstream_walk,146.83739670283978,32.630532600631064,0.0042194958561995,0.0487843714654445,227.8378084,25.551061,39.385829,0.4583915599581315,1.1459788998953286,10.21685791015625,2.270412868923611,A,height_noise;unknown_year,2,0.465742793,2527.1,,unknown
id_040000,Aba Al-Hiyas,2017.0,9.5,6.0,157.0,0.079473,full,,1.0,825.5,833.6890869140625,0.0207269717619134,6.949890842291796e-07,2.565826671824908,0.982497179014227,24,0.0,False,0.0,stage_2_upstream_walk,146.93738661527394,24.48956443587899,0.1357568077750621,0.2457579523324966,4.195254199,25.522692,42.815416,0.087226006164719,1.0975552220844689,8.1890869140625,1.3648478190104167,B,sub_pixel,1,0.202785352,,0.007411,low
id_040001,Al-Rubiqah,2011.0,4.5,2.0,688.0,0.112151,full,,1.0,789.5,794.5,0.1010152708550585,0.2632835719049956,1.143492872159478,0.997422145076764,117,0.0,True,0.0,stage_1_fast_path,734.582527433341,367.2912637166705,0.0049637188763966,0.0343045964837074,18.85989174,25.445556,43.831944,0.1392197643194716,1.2413599907220771,5.0,2.5,D,height_noise,1,0.787309988,2505.6,0.152767,moderate
id_040002,Al-Matla' Al-Aysar,2009.0,6.0,3.0,315.0,0.122678,full,,1.0,811.0,814.037841796875,0.0189538986102729,0.1045379379602308,1.2556728503140655,0.9348580959640986,22,0.0,False,0.0,stage_1_fast_path,234.81612836212025,78.27204278737342,0.0772368816219331,0.2529433071613312,20.2206789,25.821111,43.017222,0.0282154627039289,0.2299961093588824,3.037841796875,1.0126139322916667,C,sub_pixel;height_noise,2,1.775842004,2498.1,0.382771,high
id_040003,Aba Al-Hadar,2012.0,7.0,5.0,196.0,0.141034,full,,1.0,793.5,802.9428100585938,0.0233149293406767,8.388213466634167e-05,2.065923845379748,0.9594951940450744,27,0.0,False,0.0,stage_1_fast_path,176.31384646202827,35.26276929240565,0.0529985314813405,0.2421294301748275,324.1116684,25.549356,42.750702,0.098009054820993,0.694932107300318,9.44281005859375,1.88856201171875,B,sub_pixel,1,0.65101094,2507.7,1.000000,fully_silted
id_040004,Aba Al-Rimah,2015.0,5.5,3.0,134.0,0.101814,full,,1.0,821.0,824.13720703125,0.0112296311188682,0.0011414602434659,1.7850663455455085,0.982962621818284,13,0.0,False,0.0,stage_1_fast_path,117.56310838860864,39.187702796202885,0.1294411236342829,0.2615935206413269,6.888079236,25.49313,42.8098,0.020515672236394,0.2015014854184493,3.13720703125,1.0457356770833333,D,sub_pixel;height_noise,2,3.688782336,2516.2,0.211166,moderate
id_040005,Al-Matla' Al-Ayman,1982.0,8.0,5.0,250.0,0.25,full,,1.0,809.5,814.5748901367188,0.1154230977814436,0.0002229536637327,1.7773689209747907,0.985132828862026,134,0.0,False,0.0,stage_1_fast_path,264.1413987047063,52.82827974094126,0.033391401626401,0.227895587682724,18.68335244,25.848603,43.015276,0.2433360083825211,0.9733440335300844,5.07489013671875,1.01497802734375,B,pre_srtm,1,9.579388429,2498.1,1.000000,fully_silted
id_040006,Qatan,2007.0,5.0,3.75,388.0,0.28035,full,,1.0,863.0,870.0,0.196388924947318,0.1062739865308782,1.2285235208690324,0.9964531744870782,228,0.0,True,0.0,stage_1_fast_path,234.7907915031716,62.61087773417909,0.0150089192703203,0.1111758574843406,44.65648515,25.955008,42.338155,0.3479873933277039,1.2412605433483288,7.0,1.8666666666666667,A,height_noise,1,3.851548616,2510.5,0.896664,severe
id_040008,Wadi Al-Nakhil,2011.0,5.0,2.0,363.0,0.107466,full,,1.0,809.5,813.0,0.1192598413688399,9.96885421145283e-05,1.806510326316804,0.9918224130810288,138,0.0,True,0.0,stage_1_fast_path,352.7677024093013,176.38385120465065,0.0067059334830152,0.1484648734331131,60.8816278,25.428092,42.839694,0.1533958104562978,1.4273892250227775,3.5,1.75,D,height_noise,1,0.621477431,2516.2,0.406245,high
id_040009,Abu Jurayfah,2012.0,5.5,2.0,680.0,0.538464,full,,1.0,835.5,843.0,0.3884468641263369,0.0575454875706042,1.2650030492529762,0.9986570964851084,452,0.0,True,0.0,stage_3_quality_recovery,293.1545184870371,146.57725924351854,0.0042495690341911,0.045348335057497,252.1515002,26.194917,42.728295,0.6888056672505731,1.279204677101112,7.5,3.75,D,height_noise,1,1.371427525,2475.1,0.691612,severe
id_040010,Al-Rubiq,2004.0,4.0,3.0,810.0,0.5,full,,1.0,791.0,798.5,0.3626819315808037,0.0369018626373272,1.2995142271314335,0.9915060648770936,420,0.0,True,0.0,stage_1_fast_path,646.4887854606992,215.49626182023303,0.0026395495723012,0.0358789190649986,64.50903536,25.420556,43.847778,0.6541227694582352,1.3082455389164704,7.5,2.5,A,height_noise,1,0.680763743,2505.6,0.148637,moderate
id_040012,Dar'ah,2009.0,5.0,2.0,618.0,0.06,full,,1.0,847.5,852.0,0.0535799852283197,0.0002270617141529,1.8100855060866872,0.9912459864023792,62,0.0,True,0.0,stage_1_fast_path,323.36881501814145,161.68440750907072,0.0131226566118414,0.0708666518330574,143.35581,25.336667,43.601667,0.0836107027554829,1.3935117125913816,4.5,2.25,D,height_noise,1,1.882894889,,1.000000,fully_silted
id_040013,Uqlat Al-Suqur,2007.0,4.5,3.375,1301.0,0.712,full,,1.0,786.0,790.0,1.262428508998001,0.012644058546564,1.3085850229171412,0.999948142642977,1464,0.0,True,0.0,stage_1_fast_path,763.4950159632454,226.22074547059125,0.0019724484105785,0.0269351489841938,29644.48623,25.848561,42.106525,1.218019309398686,1.7107012772453456,4.0,1.1851851851851851,A,height_noise,1,0.262759093,2506.1,1.000000,fully_silted
id_040014,Al-Fawarah,2007.0,5.0,3.75,650.0,1.093,full,,1.0,902.5,908.5,0.9195100796635828,0.0042791503843182,1.4281140617684993,0.9991175160993692,1070,0.0,True,0.0,stage_2_upstream_walk,791.4985479909175,211.06627946424467,0.0025149173490022,0.0393006317317485,277.1170263,26.241667,42.470833,1.41256513406263,1.2923743221067063,6.0,1.6,A,height_noise,1,0.835095801,2486.7,0.309449,high
id_040015,Al-Rummah,1977.0,7.0,4.0,700.0,1.5,partial,617.0585327148438,0.0679180438701923,611.0,617.5,0.958916391729612,,,,1117,0.0,True,0.0,stage_1_fast_path,439.49611839401314,109.87402959850328,0.000647467373288,0.045919694006443,84011.60091,26.199722,44.021667,1.6072795115629062,1.0715196743752708,6.5,1.625,F,height_noise;pre_srtm,2,0.414523248,2481.0,1.000000,fully_silted
id_040016,Marid,1976.0,7.0,4.0,500.0,1.3,full,,1.0,534.0,541.0,1.1517305260315582,0.1772580301136392,1.1474289880184874,0.9998504995235732,1348,0.0,True,0.0,stage_1_fast_path,409.2215805704637,102.30539514261594,0.0009766201738784,0.0357861258089542,96141.11444,26.815422,44.209038,1.5968726655437553,1.2283635888798117,7.0,1.75,A,height_noise;pre_srtm,2,0.404566432,2444.3,1.000000,fully_silted
id_040017,Bada'ih Al-Hamamin,2014.0,4.5,3.0,620.0,0.318616,full,,1.0,827.0,837.5,0.2057051980594198,0.543043542180202,1.1023346486561174,0.9983252094370249,237,0.0,True,0.0,stage_1_fast_path,353.5327945121879,117.84426483739595,0.0018997993877091,0.0494178794324398,235.3240498,24.968959,42.064096,0.393400341858363,1.2347162159413307,10.5,3.5,D,height_noise,1,0.275943898,2540.2,0.188130,moderate
id_050000,Al-Dhibiyah,2018.0,6.0,4.0,1390.0,5.718024,full,,1.0,346.5,359.0,2.792956762849254,0.0093549365665925,1.367107475279582,0.9979836075403712,3302,0.0,True,0.0,stage_1_fast_path,901.5820688445076,225.3955172111269,0.0013104981150894,0.0411211922764778,3880.984441,28.094558,45.650503,6.254548389730107,1.093830384365317,12.5,3.125,D,height_noise,1,0.343134608,2393.7,0.143320,moderate
id_050001,Hafar Al-Batin,2013.0,11.5,8.5,330.0,5.503925,full,,1.0,357.0,368.0,1.7824344477348717,0.0008855903623415,1.5683915471379672,0.9977416152881624,2106,0.0,True,349.10723234298547,stage_4_river_retry,378.1995017049009,44.49405902410599,0.0025319640887244,0.0455324947834014,3671.986742,28.012222,45.507222,5.8487717241556645,1.0626546917255713,11.0,1.2941176470588236,A,-,0,0.343957365,2404.2,0.229474,moderate
id_060000,Al-Marah,2008.0,5.5,3.0,311.0,0.744065,full,,1.0,743.0,747.993896484375,0.1436946181634016,0.0010142826798946,1.6284372343888651,0.9983046549033,175,0.0,False,0.0,stage_1_fast_path,143.27334266268605,47.757780887562014,0.0028214074305396,0.0287339352071285,6309.690257,31.6375,40.146944,0.2559816983568025,0.3440313660188324,4.993896484375,1.6646321614583333,B,height_noise,1,0.153599201,2246.1,1.000000,fully_silted
id_060001,Al-Hilali,2008.0,5.5,3.0,414.0,0.99125,full,,1.0,508.0,512.6058959960938,0.3219520580795924,0.0005011885341029,1.6371288256737824,0.9799766234122882,389,0.0,False,0.0,stage_3_quality_recovery,115.0735019834175,38.3578339944725,0.0016983149012859,0.0316315181553363,575.6953498,30.83059,41.24486,0.576865255736442,0.5819573828362593,4.60589599609375,1.5352986653645833,B,height_noise,1,0.440864055,2324.9,0.354522,high
id_060002,Al-Lawiziyah,2008.0,7.0,5.0,530.0,0.623246,full,,1.0,514.5,521.7359008789062,0.2336570574460014,0.0005688564976921,1.6750850650120153,0.9932459873263442,283,0.0,False,0.0,stage_2_upstream_walk,143.6660207078506,28.73320414157012,0.0132871228817464,0.0793806090950965,82.46002077,31.086944,41.026389,0.6004490990374719,0.9634223068218198,7.23590087890625,1.44718017578125,A,-,0,0.615030822,2309.0,0.112670,moderate
id_060003,Uwayj Al-Tal'ah,2013.0,4.0,2.0,365.0,0.251651,full,,1.0,402.5,408.3731384277344,0.0592703321505662,0.0015648121463641,1.6654693591090712,0.996619352167072,71,0.0,False,0.0,stage_1_fast_path,86.67837501443024,43.33918750721512,0.004910367271064,0.0303783752024173,2138.996873,29.789167,43.058611,0.142540974855059,0.5664232403410241,5.873138427734375,2.9365692138671875,D,narrow_valley;height_noise,2,0.234210701,2356.9,1.000000,fully_silted
id_060004,Turif,2008.0,8.0,5.0,255.0,0.725625,full,,1.0,769.5,777.5,0.3629183006365674,0.0319429841591422,1.326693396581356,0.999228997250933,442,0.0,True,0.0,stage_1_fast_path,372.50889875969153,74.5017797519383,0.0074983273751516,0.0508627705276012,551.0170375,31.611389,38.521111,0.7720224709808428,1.063941389809947,8.0,1.6,A,-,0,0.215133779,2238.5,0.226199,moderate
id_060005,Al-Awashaqi,2008.0,6.0,4.0,595.0,0.7132,full,,1.0,574.5,585.030517578125,0.233989193508741,0.0695714676562814,1.31032138484814,0.99484793123686,283,0.0,False,0.0,stage_1_fast_path,345.0530960589313,86.26327401473283,0.0055952931184053,0.0731257200241088,119.6528562,30.900428,40.854141,0.811727529071401,1.138148526460181,10.530517578125,2.63262939453125,A,height_noise,1,0.500898223,2303.6,0.116356,moderate
id_060006,Gharabah,2014.0,6.5,4.0,1094.5,4.1248,full,,1.0,575.5,585.9139404296875,1.3264596170848304,0.0015403772535386,1.5345999312237293,0.9948414558238386,1604,0.0,False,0.0,stage_3_quality_recovery,230.05666586651895,57.51416646662975,0.0012211452776631,0.0638318583369255,394.2682631,30.877363,40.835401,4.061869092404248,0.9847432826814024,10.4139404296875,2.603485107421875,A,height_noise,1,3.102006137,2303.6,0.273697,high
id_060007,Aba Al-Qur,2008.0,8.0,5.0,736.0,3.52,full,,1.0,457.0,467.5,1.2978876895554072,0.0004966803528712,1.6126707455121416,0.9977112116317112,1567,0.0,True,0.0,stage_3_quality_recovery,345.354647213921,69.0709294427842,0.0045004241514601,0.0383363328874111,3213.781161,30.769641,41.47753,3.6986071970068095,1.0507406809678437,10.5,2.1,A,-,0,0.304766787,2325.8,0.385275,high
id_060008,Badanah,2008.0,9.0,6.0,783.0,4.67875,full,,1.0,581.5,587.3214721679688,0.929943015901199,0.0004008151308775,1.618927138128015,0.9932712528073137,1126,0.0,False,0.0,stage_1_fast_path,660.9777026921915,110.1629504486986,0.00094734255085,0.0502214208245277,875.4146251,31.03,40.850833,1.9587853889553009,0.4186557069634626,5.82147216796875,0.970245361328125,B,-,0,2.233341646,2303.6,0.578586,severe
id_060009,Ar'ar,2006.0,9.0,7.0,1828.0,10.366,full,,1.0,607.5,620.0,4.470996404688161,0.0218791381525249,1.3103711661822504,0.9996429748082472,5404,0.0,True,0.0,stage_1_fast_path,1697.0572826402918,242.43675466289884,0.0066142318100326,0.0445570759475231,5182.811148,30.811944,40.696389,11.410183043330052,1.100731530323177,12.5,1.7857142857142858,A,-,0,0.271879301,2315.7,0.209130,moderate
id_070000,Ayash,2004.0,17.0,14.0,130.0,1.0,full,,1.0,2029.5,2042.0592041015625,0.1511586480346147,0.0089261775946803,1.535736570197265,0.994086266906716,168,0.0,False,0.0,stage_1_fast_path,149.97948670975785,10.712820479268418,0.0192530322383717,0.2879024446010589,48.04965443,19.412083,42.055667,0.8504923336590453,0.8504923336590453,12.5592041015625,0.8970860072544643,A,-,0,2.931806733,2396.4,0.238399,moderate
id_070001,Ara'ir,1984.0,28.0,22.0,145.0,0.963,full,,1.0,2268.0,2284.787841796875,0.0661981821782751,0.0250686095323998,1.5004225023574291,0.9968289464146848,73,0.0,False,0.0,stage_1_fast_path,271.0217288069046,12.319169491222937,0.0653229235294616,0.2482744306325912,10.3091204,17.656353,43.462664,0.4275677109185851,0.4439955461252182,16.787841796875,0.7630837180397727,B,pre_srtm,1,8.120575761,2343.7,0.280859,high
id_070002,Al-Gharabah,2004.0,25.0,21.0,120.0,1.5,full,,1.0,2115.0,2146.0,0.1489209443812772,0.000150873450042,1.9369967563370023,0.9957787242860362,165,0.0,True,0.0,stage_3_quality_recovery,150.2124477255752,7.152973701217867,0.0567247707596083,0.4155464470386505,88.28944161,18.790556,42.305556,1.5485521837707656,1.0323681225138437,31.0,1.4761904761904765,A,-,0,2.53529368,2369.8,0.252537,high
id_070003,Badwah,2007.0,28.0,24.0,111.0,2.0,full,,1.0,2192.0,2223.0,0.1990864993260724,0.43490340381604,1.2611686446909058,0.9974713274070738,221,0.0,True,0.0,stage_3_quality_recovery,180.08436906271925,7.503515377613302,0.0086903393551573,0.2273689359426498,71.78757092,19.168061,42.164667,2.054599698361718,1.027299849180859,31.0,1.2916666666666667,A,-,0,1.916397591,2393.8,0.100535,moderate
id_070004,Abha,1974.0,25.5,22.5,350.0,2.13,full,,1.0,2259.5,2279.0,0.2453010895643665,0.004374445557006,1.610121219876033,0.996569974234166,271,0.0,True,0.0,stage_5_relaxed_alignment,1534.388268260222,68.19503414489876,0.0105303385188282,0.2413389980792999,56.41754635,18.209935,42.488654,2.14864745886869,1.0087546755252066,19.5,0.8666666666666667,A,pre_srtm,1,4.877669425,2367.1,0.516781,severe
id_070005,Al-Fawhah,2009.0,24.0,20.0,100.0,3.0,full,,1.0,1748.0,1769.5,0.4463417146023711,0.0122047013307811,1.4872832013780677,0.9990489777068604,497,0.0,True,0.0,stage_2_upstream_walk,209.77492976516584,10.488746488258291,0.0112772453079459,0.1800223886966705,276.6705769,19.748056,41.983333,3.1865834785470093,1.062194492849003,21.5,1.075,A,-,0,2.647092764,2482.8,0.319239,high
id_070006,Tandahah,1983.0,16.0,10.0,120.0,4.2,partial,2044.0074462890625,0.9988754516628569,2044.0,2050.62158203125,0.6655062460586795,4.565051656940162e-08,2.373708121320029,0.9901347204458608,736,0.0,False,0.0,stage_5_relaxed_alignment,240.5620675687018,24.05620675687018,0.0028755924878376,0.1066081821918487,376.0122644,18.312683,42.876847,3.0876867577837985,0.7351635137580472,6.62158203125,0.662158203125,A,pre_srtm,1,3.306666613,2435.1,0.979193,severe
id_070007,Atud Al-Khamis,1981.0,22.0,16.0,340.0,6.24,partial,2018.012939453125,0.55896484375,2012.5,2025.0,1.3216984332239716,7.45387913475886e-09,2.447613574737877,0.954506417618389,1461,0.0,True,0.0,stage_2_upstream_walk,1082.7883648359634,67.67427280224771,0.014000615170902,0.0896395891904831,394.1347279,18.260411,42.715894,6.651689359950415,1.0659758589664128,12.5,0.78125,B,pre_srtm,1,1.844645499,2367.1,0.403313,high
id_070008,Tarjis,2012.0,25.0,20.0,184.0,9.7138,full,,1.0,1913.0,1933.5,1.678543896723112,0.0736993290024061,1.3070498686218843,0.9992432544628924,1863,0.0,True,0.0,stage_3_quality_recovery,270.1484210998539,13.507421054992696,0.0153333405162917,0.2288732379674911,726.4650485,19.104167,42.295,9.868090192624738,1.0158836081270706,20.5,1.025,A,-,0,3.437394963,2404.2,0.276847,high
id_070009,Marbah,2008.0,32.0,26.0,215.0,10.0,full,,1.0,350.0,380.5,0.7979674253321468,0.0008119141966459,1.7113703972664185,0.9996492330500614,880,0.0,True,0.0,stage_5_relaxed_alignment,421.579302586634,16.214588561024385,0.0789777668099768,0.2773598730564117,535.9983276,17.903333,42.384722,10.115597287832689,1.011559728783269,30.5,1.1730769230769231,A,-,0,1.850639807,2402.4,0.137346,moderate
id_070010,Atud,2008.0,35.0,29.0,227.0,10.0,full,,1.0,443.5,472.48431396484375,0.5693966527859055,7.412239955233003e-05,1.9071220826374544,0.9993529472513708,628,0.0,False,0.0,stage_1_fast_path,391.4452120208413,13.498110759339356,0.0387924191033461,0.3081854283809662,513.8640815,17.900556,42.471111,7.143525283657568,0.7143525283657568,28.98431396484375,0.9994591022359912,A,-,0,3.383140545,2402.4,0.240712,moderate
id_070012,Tabalah,2014.0,49.25,34.25,420.0,68.41,full,,1.0,1339.0,1378.0,5.12260331807702,0.0006047637991712,1.649448813682041,0.9997922959660286,5712,0.0,True,0.0,stage_2_upstream_walk,359.362296463595,10.4923298237546,0.0315326953299828,0.2057537883520126,858.0340866,19.953934,42.143974,70.79115829246447,1.0348071669706838,39.0,1.1386861313868613,A,-,0,5.962918557,2482.8,0.069037,low
